id,latitude,longitude,name,type,color,segment_name,segment_id
0,45.385229839,-73.9701257553,Boul. Pincourt hill:  [UNCLAIMED],UNCLAIMED,000000,Boul. Pincourt hill,3655223,
1,45.384464,-73.968663,Pincourt Punch:  [UNCLAIMED],UNCLAIMED,000000,Pincourt Punch,4373377,
2,45.384433,-73.966737,Full fat loop:  [UNCLAIMED],UNCLAIMED,000000,Full fat loop,8840701,
3,45.384506,-73.968986,Boul. Pincourt bike path + rue du Rocher:  [UNCLAIMED],UNCLAIMED,000000,Boul. Pincourt bike path + rue du Rocher,9349111,
4,45.4271935695,-73.9685117771,Dave's hill:  [UNCLAIMED],UNCLAIMED,000000,Dave's hill,821292,
5,45.427031,-73.96842,Warp Dragon:  [UNCLAIMED],UNCLAIMED,000000,Warp Dragon,4305613,
6,45.436715344,-73.9683685731,Senneville Hill - West:  [UNCLAIMED],UNCLAIMED,000000,Senneville Hill - West,2492803,
7,45.426561,-73.968267,Senneville Climb:  [UNCLAIMED],UNCLAIMED,000000,Senneville Climb,2196976,
8,45.4254137306,-73.9680819121,Apple Muur:  [UNCLAIMED],UNCLAIMED,000000,Apple Muur,1019465,
9,45.427516,-73.968755,Dave'hill court:  [UNCLAIMED],UNCLAIMED,000000,Dave'hill court,7050243,
10,45.426946,-73.968423,WCG : Interval 7 : Senneville Hill:  [UNCLAIMED],UNCLAIMED,000000,WCG : Interval 7 : Senneville Hill,7778864,
11,45.4236016888,-73.9677685965,GLOCK MUUR:  [UNCLAIMED],UNCLAIMED,000000,GLOCK MUUR,2188255,
12,45.426861,-73.968377,PS40 : KOM 3 : Senneville:  [UNCLAIMED],UNCLAIMED,000000,PS40 : KOM 3 : Senneville,9316675,
13,45.426459,-73.968291,hilly billy:  [UNCLAIMED],UNCLAIMED,000000,hilly billy,9772929,
14,45.497927,-74.002722,Oka E-O / O-E:  [UNCLAIMED],UNCLAIMED,000000,Oka E-O / O-E,5003401,
15,45.533635,-74.006237,Oka Square Loop (North) via Montee du Village Finish:  [UNCLAIMED],UNCLAIMED,000000,Oka Square Loop (North) via Montee du Village Finish,9451251,
16,45.5718,-73.979915,Sprint final vers la cabane a sucre:  [UNCLAIMED],UNCLAIMED,000000,Sprint final vers la cabane a sucre,4530219,
17,45.571575,-73.979777,lalande-bois de rivière-freniere-lalande:  [UNCLAIMED],UNCLAIMED,000000,lalande-bois de rivière-freniere-lalande,4035578,
18,45.64001,-73.989161,Loop Saint et Ange "Official":  [UNCLAIMED],UNCLAIMED,000000,Loop Saint et Ange "Official",7180817,
19,45.648772,-73.988791,Petit Sprint de belle asphalte:  [UNCLAIMED],UNCLAIMED,000000,Petit Sprint de belle asphalte,9910818,
20,45.628681,-73.986082,The Mira Hood:  [UNCLAIMED],UNCLAIMED,000000,The Mira Hood,4616988,
21,45.396557,-73.964414,Ile Perrot Warm-up!:  [UNCLAIMED],UNCLAIMED,000000,Ile Perrot Warm-up!,5624984,
22,45.382198,-73.96581,Nitrous Oxide:  [UNCLAIMED],UNCLAIMED,000000,Nitrous Oxide,7930686,
23,45.385354,-73.99245,Traversier Trot:  [UNCLAIMED],UNCLAIMED,000000,Traversier Trot,4302537,
24,45.395035,-73.982964,Blvd Perrot East 1.5km:  [UNCLAIMED],UNCLAIMED,000000,Blvd Perrot East 1.5km,7605315,
25,45.394542,-73.984151,WCG : Ferries Loop : Terrasse Sprint : 7e to Track:  [UNCLAIMED],UNCLAIMED,000000,WCG : Ferries Loop : Terrasse Sprint : 7e to Track,7733739,
26,45.391863,-73.970518,la 20 jusquau chemin Duhamel:  [UNCLAIMED],UNCLAIMED,000000,la 20 jusquau chemin Duhamel,9490953,
27,45.384129,-73.979088,LT Power-Climb:  [UNCLAIMED],UNCLAIMED,000000,LT Power-Climb,7264173,
28,45.38634,-73.999024,Autoroute 20 : Ile-Perot→Vaudreuil:  [UNCLAIMED],UNCLAIMED,000000,Autoroute 20 : Ile-Perot→Vaudreuil,9625097,
29,45.385333,-74.013862,Rue de l'Hôtel de Ville Climb:  [UNCLAIMED],UNCLAIMED,000000,Rue de l'Hôtel de Ville Climb,4791945,
30,45.405246,-73.923487,Fritz Parc:  [Patrick Santeusanio],Patrick Santeusanio,AD2323,Fritz Parc,5821325,
31,45.403965,-73.939061,WCG : Ferries Loop : Lakeshore part 1 : Abbott to Morgan:  [Patrick Santeusanio],Patrick Santeusanio,AD2323,WCG : Ferries Loop : Lakeshore part 1 : Abbott to Morgan,5272127,
32,45.3998,-73.958546,Bridge Climb:  [Patrick Santeusanio],Patrick Santeusanio,AD2323,Bridge Climb,9310606,
33,45.408523,-73.915848,fritz west:  [Patrick Santeusanio],Patrick Santeusanio,AD2323,fritz west,9525745,
34,45.413929,-73.939705,Surge:  [UNCLAIMED],UNCLAIMED,000000,Surge,7883083,
35,45.392437,-73.939834,SHAZAM!:  [UNCLAIMED],UNCLAIMED,000000,SHAZAM!,7930662,
36,45.389992,-73.930573,Fesse Express:  [UNCLAIMED],UNCLAIMED,000000,Fesse Express,7930574,
37,45.405016,-73.936155,Escape from McDo:  [Patrick Santeusanio],Patrick Santeusanio,AD2323,Escape from McDo,9598784,
38,45.387985,-73.961921,Don Quichotte-hill only:  [UNCLAIMED],UNCLAIMED,000000,Don Quichotte-hill only,4597265,
39,45.4081885424,-73.9385051095,1 st seg Macdonald:  [UNCLAIMED],UNCLAIMED,000000,1 st seg Macdonald,2296327,
40,45.413592,-73.89915,Senneville Lollipop:  [UNCLAIMED],UNCLAIMED,000000,Senneville Lollipop,5568228,
41,45.381962,-73.746487,Sprint Rivière Chateauguay:  [UNCLAIMED],UNCLAIMED,000000,Sprint Rivière Chateauguay,7719733,
42,45.38106,-73.767135,Centre Nautique/Maple Grove/Centre Nautique:  [UNCLAIMED],UNCLAIMED,000000,Centre Nautique/Maple Grove/Centre Nautique,4448245,
43,45.408795,-73.557682,Voie Maritime (Sprint Ouest):  [UNCLAIMED],UNCLAIMED,000000,Voie Maritime (Sprint Ouest),7974277,
44,45.40933,-73.577618,Montée Récré-o-parc:  [UNCLAIMED],UNCLAIMED,000000,Montée Récré-o-parc,5560362,
45,45.405947,-73.56723,Écluse (sprint):  [UNCLAIMED],UNCLAIMED,000000,Écluse (sprint),3769823,
46,45.408442,-73.568747,Pre ROC Sprint:  [UNCLAIMED],UNCLAIMED,000000,Pre ROC Sprint,3989191,
47,45.4085389897,-73.5642489418,15km TT:  [UNCLAIMED],UNCLAIMED,000000,15km TT,665985,
48,45.405451,-73.567089,Off Ecluse Sprint:  [UNCLAIMED],UNCLAIMED,000000,Off Ecluse Sprint,9236820,
49,45.393298,-73.580196,132 jusqu'au pont:  [UNCLAIMED],UNCLAIMED,000000,132 jusqu'au pont,7384195,
50,45.408598,-73.562393,TT 20 KM Départ Ste-Catherine:  [UNCLAIMED],UNCLAIMED,000000,TT 20 KM Départ Ste-Catherine,9854997,
51,45.402496,-73.556688,Rapidos traning 2:  [UNCLAIMED],UNCLAIMED,000000,Rapidos traning 2,3904290,
52,45.384074,-73.584878,St-Rémi sens horaire:  [UNCLAIMED],UNCLAIMED,000000,St-Rémi sens horaire,4638229,
53,45.400667,-73.522891,Candiac-LaPrairie_Est:  [UNCLAIMED],UNCLAIMED,000000,Candiac-LaPrairie_Est,4794412,
54,45.400609,-73.53785,VIA CLSC:  [UNCLAIMED],UNCLAIMED,000000,VIA CLSC,7252701,
55,45.4081777,-73.5076542,La Prairie - Candiac / Marie-Victorin Ouest:  [UNCLAIMED],UNCLAIMED,000000,La Prairie - Candiac / Marie-Victorin Ouest,2656120,
56,45.384352,-73.541475,Principale nord:  [UNCLAIMED],UNCLAIMED,000000,Principale nord,7252780,
57,45.3844279423,-73.519298723,Montée autoroute 15 Parc Haendel:  [UNCLAIMED],UNCLAIMED,000000,Montée autoroute 15 Parc Haendel,2731749,
58,45.396578,-73.529935,Sprint final Montréalaise:  [UNCLAIMED],UNCLAIMED,000000,Sprint final Montréalaise,5518316,
59,45.382127,-73.535547,Monté:  [UNCLAIMED],UNCLAIMED,000000,Monté,7252752,
60,45.393887,-73.532652,last kilo montrealaise:  [UNCLAIMED],UNCLAIMED,000000,last kilo montrealaise,5518371,
61,45.392077,-73.51708,Hendel:  [UNCLAIMED],UNCLAIMED,000000,Hendel,7252747,
62,45.384225,-73.534237,Sprint Haendel:  [UNCLAIMED],UNCLAIMED,000000,Sprint Haendel,9499314,
63,45.390519,-73.466311,Sprint vers boul. St-Jean:  [UNCLAIMED],UNCLAIMED,000000,Sprint vers boul. St-Jean,1442758,
64,45.396395,-73.483732,Rue de la Bélize Climb:  [UNCLAIMED],UNCLAIMED,000000,Rue de la Bélize Climb,4281431,
65,45.40706,-73.477751,Trail briquetterie:  [UNCLAIMED],UNCLAIMED,000000,Trail briquetterie,8906287,
66,45.397627,-73.484956,Briquetterie NORD:  [UNCLAIMED],UNCLAIMED,000000,Briquetterie NORD,9028232,
67,45.398795,-73.491507,sprint briqueterie:  [UNCLAIMED],UNCLAIMED,000000,sprint briqueterie,10096402,
68,45.3885041038,-73.403865248,BattailleS-Tir-Golf-BattailleN:  [UNCLAIMED],UNCLAIMED,000000,BattailleS-Tir-Golf-BattailleN,2601372,
69,45.447561,-73.942179,Senneville through the trees sprint:  [UNCLAIMED],UNCLAIMED,000000,Senneville through the trees sprint,4934073,
70,45.429612,-73.916949,St Marie farms:  [UNCLAIMED],UNCLAIMED,000000,St Marie farms,4243666,
71,45.422235,-73.935948,Rocky Start to Bumpy Finish:  [UNCLAIMED],UNCLAIMED,000000,Rocky Start to Bumpy Finish,4702480,
72,45.418184842,-73.9352183976,2e seg mcdonald:  [UNCLAIMED],UNCLAIMED,000000,2e seg mcdonald,2296333,
73,45.427099,-73.921837,Sainte Marie's traffic:  [UNCLAIMED],UNCLAIMED,000000,Sainte Marie's traffic,5945427,
74,45.4410002567,-73.9082711656,Single track:  [UNCLAIMED],UNCLAIMED,000000,Single track,1443159,
75,45.438427,-73.907283,Technical SingleTrack:  [UNCLAIMED],UNCLAIMED,000000,Technical SingleTrack,5541226,
76,45.4447307065,-73.9103374723,Dirt Highway:  [UNCLAIMED],UNCLAIMED,000000,Dirt Highway,1443151,
77,45.440705,-73.91765,FatBike SBCU loop:  [UNCLAIMED],UNCLAIMED,000000,FatBike SBCU loop,8974129,
78,45.440993,-73.913228,Technical SingleTrack Loop:  [UNCLAIMED],UNCLAIMED,000000,Technical SingleTrack Loop,5541230,
79,45.4238044,-73.8662895,Garret's Giddyup:  [Patrick Santeusanio],Patrick Santeusanio,AD2323,Garret's Giddyup,1858757,
80,45.419591,-73.882105,Lakeview Boulevard Climb:  [Patrick Santeusanio],Patrick Santeusanio,AD2323,Lakeview Boulevard Climb,3981553,
81,45.4376933444,-73.9016836602,L'Anse a L'Orme - Out and Back:  [UNCLAIMED],UNCLAIMED,000000,L'Anse a L'Orme - Out and Back,2127492,
82,45.4391717,-73.8896161,Marie's Hump:  [UNCLAIMED],UNCLAIMED,000000,Marie's Hump,1740735,
83,45.4222169117,-73.8723869311,Lakeshore around Beaurepaire village:  [UNCLAIMED],UNCLAIMED,000000,Lakeshore around Beaurepaire village,1252910,
84,45.441202,-73.878949,Ch Ste-Marie overpass ouest:  [UNCLAIMED],UNCLAIMED,000000,Ch Ste-Marie overpass ouest,7631682,
85,45.435003,-73.848812,WCG : Elm West:  [UNCLAIMED],UNCLAIMED,000000,WCG : Elm West,8246776,
86,45.440065,-73.885961,Park to Park:  [UNCLAIMED],UNCLAIMED,000000,Park to Park,4558642,
87,45.427911,-73.885062,Elm - Woodland to Westcroft:  [UNCLAIMED],UNCLAIMED,000000,Elm - Woodland to Westcroft,7720120,
88,45.436355,-73.898194,WCG : Interval 10 : The return:  [UNCLAIMED],UNCLAIMED,000000,WCG : Interval 10 : The return,5123495,
89,45.429248,-73.824304,Chemin du Bord-du-Lac-Lakeshore Climb:  [Marc Devlin],Marc Devlin,2A4BD7,Chemin du Bord-du-Lac-Lakeshore Climb,3898952,
90,45.433839,-73.810533,Parc Stewart:  [Marc Devlin],Marc Devlin,2A4BD7,Parc Stewart,6981302,
91,45.431125,-73.84586,St-Charles Stretch direction Lakeshore:  [Patrick Santeusanio],Patrick Santeusanio,AD2323,St-Charles Stretch direction Lakeshore,4295048,
92,45.433338,-73.81159,Beaconsfield Blvd : St-Charles to St-Jean:  [UNCLAIMED],UNCLAIMED,000000,Beaconsfield Blvd : St-Charles to St-Jean,7189412,
93,45.4282764,-73.8339753,Beaconsfield St-Charles stretch:  [Patrick Santeusanio],Patrick Santeusanio,AD2323,Beaconsfield St-Charles stretch,2453606,
94,45.439539,-73.832956,Windmill Hill:  [UNCLAIMED],UNCLAIMED,000000,Windmill Hill,7330689,
95,45.440398,-73.827873,The final grind:  [UNCLAIMED],UNCLAIMED,000000,The final grind,9443479,
96,45.431004,-73.824078,Lanthier dir. ouest:  [UNCLAIMED],UNCLAIMED,000000,Lanthier dir. ouest,8091084,
97,45.442381,-73.821038,Cedar to Pte-Claire - Train sprint:  [UNCLAIMED],UNCLAIMED,000000,Cedar to Pte-Claire - Train sprint,9527539,
98,45.4288416,-73.8310298,Rotters Loop:  [UNCLAIMED],UNCLAIMED,000000,Rotters Loop,1681459,
99,45.446353,-73.780394,PS40 : SPRINT 3 : DORVAL:  [Mike Sants],Mike Sants,1D6914,PS40 : SPRINT 3 : DORVAL,9316745,
100,45.43896,-73.740816,Posh push to Thrush:  [Mike Sants],Mike Sants,1D6914,Posh push to Thrush,4332693,
101,45.444466,-73.776929,PS40 : Sprint 2 : Pointe-Claire Sign:  [Mike Sants],Mike Sants,1D6914,PS40 : Sprint 2 : Pointe-Claire Sign,9316606,
102,45.441932,-73.752023,JV3 Fly By:  [Mike Sants],Mike Sants,1D6914,JV3 Fly By,4375819,
103,45.441932,-73.758881,Jean XXIII sprint:  [Mike Sants],Mike Sants,1D6914,Jean XXIII sprint,7947880,
104,45.442864,-73.774185,Touzin Sprint:  [Mike Sants],Mike Sants,1D6914,Touzin Sprint,7083356,
105,45.4412987782,-73.7403470278,Avenue Dawson - Dvl Ave - Stream.:  [Mike Sants],Mike Sants,1D6914,Avenue Dawson - Dvl Ave - Stream.,2200585,
106,45.441753,-73.760784,P.B. to Dorval Ave:  [Mike Sants],Mike Sants,1D6914,P.B. to Dorval Ave,9527506,
107,45.445107,-73.731288,Carson:  [UNCLAIMED],UNCLAIMED,000000,Carson,5909984,
108,45.4283758532,-73.6765351798,Sprint Parc Rene-Levesque Ouest:  [Mike Sants],Mike Sants,1D6914,Sprint Parc Rene-Levesque Ouest,2358922,
109,45.42844,-73.686271,Park Sprint :  [Mike Sants],Mike Sants,1D6914,Park Sprint ,8149161,
110,45.43808,-73.714848,Lachine BIke Path 52nd to 32nd Avenue:  [Marc Devlin],Marc Devlin,2A4BD7,Lachine BIke Path 52nd to 32nd Avenue,4173833,
111,45.432527,-73.683582,Lachine Waterfront (Eastbound):  [Mike Sants],Mike Sants,1D6914,Lachine Waterfront (Eastbound),7715348,
112,45.439969,-73.7217,PS40 : Sprint 4 : Lachine:  [Mike Sants],Mike Sants,1D6914,PS40 : Sprint 4 : Lachine,9316742,
113,45.4392180126,-73.6725883093,1 lap Mardi Cycliste:  [UNCLAIMED],UNCLAIMED,000000,1 lap Mardi Cycliste,621249,
114,45.43304684,-73.69355613,Saint Joseph Westbound:  [Mike Sants],Mike Sants,1D6914,Saint Joseph Westbound,2189823,
115,45.442452,-73.709921,48e Sprint:  [UNCLAIMED],UNCLAIMED,000000,48e Sprint,4705541,
116,45.4454091378,-73.6789348349,Petit Dimanche Lap:  [UNCLAIMED],UNCLAIMED,000000,Petit Dimanche Lap,719256,
117,45.44506,-73.728581,Handfield Loop:  [UNCLAIMED],UNCLAIMED,000000,Handfield Loop,9316470,
118,45.435987,-73.654857,Clement to Dollard:  [Josh Felker],Josh Felker,814A19,Clement to Dollard,4765374,
119,45.4310656479,-73.6657828745,Lachine Canal - Rue Musee to bridge with old train:  [Josh Felker],Josh Felker,814A19,Lachine Canal - Rue Musee to bridge with old train,2325046,
120,45.441114,-73.645919,St. Pierre Bridge to rue du Musee:  [Josh Felker],Josh Felker,814A19,St. Pierre Bridge to rue du Musee,4237697,
121,45.428445,-73.66541,Lyette to Stirling uphill:  [Josh Felker],Josh Felker,814A19,Lyette to Stirling uphill,8049962,
122,45.422815,-73.655412,BERGES- Bélanger to 90e:  [Josh Felker],Josh Felker,814A19,BERGES- Bélanger to 90e,7975151,
123,45.416052,-73.634263,La Salle petite côte:  [Josh Felker],Josh Felker,814A19,La Salle petite côte,9223941,
124,45.416968,-73.643914,90e à 75e Boulevard Lasalle:  [Josh Felker],Josh Felker,814A19,90e à 75e Boulevard Lasalle,9804047,
125,45.4386571376,-73.6635454092,Victoria Sprint.:  [Mike Sants],Mike Sants,1D6914,Victoria Sprint.,2518291,
126,45.4222847616,-73.6219665122,Ave Dollard to Blvd Lasalle:  [Mike Sants],Mike Sants,1D6914,Ave Dollard to Blvd Lasalle,1804825,
127,45.44171,-73.626635,Angrignon Boulevard Climb:  [UNCLAIMED],UNCLAIMED,000000,Angrignon Boulevard Climb,6277819,
128,45.429962,-73.592181,LaSalle Blvd - 5th to Douglas:  [Josh Felker],Josh Felker,814A19,LaSalle Blvd - 5th to Douglas,9598966,
129,45.4415353574,-73.5964589193,Angrignon Park Reverse Sprint:  [UNCLAIMED],UNCLAIMED,000000,Angrignon Park Reverse Sprint,1821922,
130,45.446579,-73.590022,Canal de l'aqueduct - Stephens à Bishop Power:  [Mike Sants],Mike Sants,1D6914,Canal de l'aqueduct - Stephens à Bishop Power,8160819,
131,45.44138,-73.608321,Angrignon Park Sprint:  [Mike Sants],Mike Sants,1D6914,Angrignon Park Sprint,4607037,
132,45.427307,-73.599493,Bishop Power sprint:  [Mike Sants],Mike Sants,1D6914,Bishop Power sprint,8181497,
133,45.44322,-73.574488,Stephens to Bishop Power Sprint:  [Josh Felker],Josh Felker,814A19,Stephens to Bishop Power Sprint,9906497,
134,45.427095,-73.595562,Bishop Power Boulevard to Raymond Street:  [Josh Felker],Josh Felker,814A19,Bishop Power Boulevard to Raymond Street,9906515,
135,45.443879,-73.575565,Triathlon de Verdun - Natation:  [UNCLAIMED],UNCLAIMED,000000,Triathlon de Verdun - Natation,4817870,
136,45.443329,-73.577043,Triathlon de Verdun - Vélo:  [UNCLAIMED],UNCLAIMED,000000,Triathlon de Verdun - Vélo,4817901,
137,45.434649,-73.591115,Ouimet Sprint:  [UNCLAIMED],UNCLAIMED,000000,Ouimet Sprint,4261825,
138,45.417749,-73.498564,Bridge over Hwy-15:  [UNCLAIMED],UNCLAIMED,000000,Bridge over Hwy-15,9939846,
139,45.423126,-73.495102,Lac de la Citiere reverse:  [UNCLAIMED],UNCLAIMED,000000,Lac de la Citiere reverse,4111052,
140,45.432822,-73.483552,Parc Radisson:  [UNCLAIMED],UNCLAIMED,000000,Parc Radisson,8106402,
141,45.426468,-73.481784,Taschereau - Golf to Piste cyclable :  [UNCLAIMED],UNCLAIMED,000000,Taschereau - Golf to Piste cyclable ,9257476,
142,45.431548,-73.467673,Parc Illinois ouest:  [UNCLAIMED],UNCLAIMED,000000,Parc Illinois ouest,5669645,
143,45.430409,-73.453283,Du Quarties Tracks -> Des Prairies Path:  [UNCLAIMED],UNCLAIMED,000000,Du Quarties Tracks -> Des Prairies Path,7726844,
144,45.441322,-73.442623,Du Quartier Sprint:  [UNCLAIMED],UNCLAIMED,000000,Du Quartier Sprint,5652357,
145,45.428316,-73.458404,Matte ( Quartier to Illinois ):  [UNCLAIMED],UNCLAIMED,000000,Matte ( Quartier to Illinois ),8135549,
146,45.418238,-73.487229,Taschereau:  Ernest rochette - Rivard:  [UNCLAIMED],UNCLAIMED,000000,Taschereau:  Ernest rochette - Rivard,9300042,
147,45.433892,-73.447658,Quartier Sprint - Prairies to Tracks:  [UNCLAIMED],UNCLAIMED,000000,Quartier Sprint - Prairies to Tracks,8500468,
148,45.447082,-73.485331,Brossard BackyardZ - Rivard to Robert:  [Yibing Wen],Yibing Wen,8126C0,Brossard BackyardZ - Rivard to Robert,7110476,
149,45.456096,-73.933037,Nature Park:  [UNCLAIMED],UNCLAIMED,000000,Nature Park,4365351,
150,45.4550161316,-73.8717554247,Snake Path:  [UNCLAIMED],UNCLAIMED,000000,Snake Path,1737713,
151,45.48184,-73.86194,Sommerset Climb:  [UNCLAIMED],UNCLAIMED,000000,Sommerset Climb,2743938,
152,45.479235,-73.860415,Jacques Bizzard Climb:  [UNCLAIMED],UNCLAIMED,000000,Jacques Bizzard Climb,8011196,
153,45.466696,-73.8496106,De Salaberry to Pierrefonds Boulevard:  [UNCLAIMED],UNCLAIMED,000000,De Salaberry to Pierrefonds Boulevard,2219539,
154,45.448427,-73.878146,Houde to Saint-Charles:  [UNCLAIMED],UNCLAIMED,000000,Houde to Saint-Charles,5938173,
155,45.459746,-73.892062,WCG : Ferries Loop : Pierrefond blvd:  [UNCLAIMED],UNCLAIMED,000000,WCG : Ferries Loop : Pierrefond blvd,5652638,
156,45.4760217,-73.871095,Ste-Anne Hill:  [UNCLAIMED],UNCLAIMED,000000,Ste-Anne Hill,1613188,
157,45.463118,-73.867527,WCG : Oakwood:  [UNCLAIMED],UNCLAIMED,000000,WCG : Oakwood,8244720,
158,45.47492,-73.871693,Becket:  [UNCLAIMED],UNCLAIMED,000000,Becket,9823061,
159,45.474979,-73.853822,Suburbia Square:  [UNCLAIMED],UNCLAIMED,000000,Suburbia Square,7331247,
160,45.474098,-73.833149,St. Jean-Tecumseh MUP:  [UNCLAIMED],UNCLAIMED,000000,St. Jean-Tecumseh MUP,4034397,
161,45.467148,-73.846204,St-Jean sprint:  [UNCLAIMED],UNCLAIMED,000000,St-Jean sprint,4243723,
162,45.452016,-73.813475,Hit that b***h:  [UNCLAIMED],UNCLAIMED,000000,Hit that b***h,9400123,
163,45.4520945,-73.8133631,Santa Louie Louie:  [UNCLAIMED],UNCLAIMED,000000,Santa Louie Louie,2395850,
164,45.448162,-73.801956,Coolbreeze Crush:  [UNCLAIMED],UNCLAIMED,000000,Coolbreeze Crush,4841145,
165,45.472819,-73.836233,salaberry/  st-jean ouest:  [UNCLAIMED],UNCLAIMED,000000,salaberry/  st-jean ouest,9940319,
166,45.465148,-73.822567,St. Jean to Sources:  [UNCLAIMED],UNCLAIMED,000000,St. Jean to Sources,8084596,
167,45.451621,-73.793026,Valois Pool Raceway:  [UNCLAIMED],UNCLAIMED,000000,Valois Pool Raceway,5084770,
168,45.4502331,-73.7813059,La Grosse Banane:  [UNCLAIMED],UNCLAIMED,000000,La Grosse Banane,1931861,
169,45.478501,-73.759959,Technoparc Straight (with wind at back):  [UNCLAIMED],UNCLAIMED,000000,Technoparc Straight (with wind at back),9404454,
170,45.4795678239,-73.7658793945,Techno Park St-Laurent Big Loop:  [UNCLAIMED],UNCLAIMED,000000,Techno Park St-Laurent Big Loop,669179,
171,45.478794,-73.749738,Planespotting:  [UNCLAIMED],UNCLAIMED,000000,Planespotting,7191030,
172,45.450269,-73.743913,Cardinal Crush:  [UNCLAIMED],UNCLAIMED,000000,Cardinal Crush,4134111,
173,45.4532872466,-73.7820331659,Sources Overpass. Dir. Sud:  [UNCLAIMED],UNCLAIMED,000000,Sources Overpass. Dir. Sud,2200506,
174,45.463738,-73.787159,Chester south: The Two Circles:  [UNCLAIMED],UNCLAIMED,000000,Chester south: The Two Circles,9825048,
175,45.480436692,-73.760941783,Techno Parc St-Laurent Small Loop:  [UNCLAIMED],UNCLAIMED,000000,Techno Parc St-Laurent Small Loop,669212,
176,45.475831,-73.73143,St-Martin Airplane Race:  [UNCLAIMED],UNCLAIMED,000000,St-Martin Airplane Race,9906443,
177,45.4563963667,-73.7474121414,welcome to montreal:  [UNCLAIMED],UNCLAIMED,000000,welcome to montreal,3685739,
178,45.454391,-73.701864,Railway Viaduc Bump 2:  [UNCLAIMED],UNCLAIMED,000000,Railway Viaduc Bump 2,4671460,
179,45.460745,-73.724627,55e Uphill sprint.:  [UNCLAIMED],UNCLAIMED,000000,55e Uphill sprint.,8155312,
180,45.453896,-73.705331,Railway Viaduc Bump:  [UNCLAIMED],UNCLAIMED,000000,Railway Viaduc Bump,4671389,
181,45.458544,-73.677947,Meadowbrook sprint:  [UNCLAIMED],UNCLAIMED,000000,Meadowbrook sprint,9571023,
182,45.45453,-73.729342,Lepine South Sprint:  [UNCLAIMED],UNCLAIMED,000000,Lepine South Sprint,7097018,
183,45.456373,-73.672284,Blossom Sprint:  [UNCLAIMED],UNCLAIMED,000000,Blossom Sprint,9994637,
184,45.464151,-73.6292,Avenue Draper Climb:  [Arvind Ramanathan],Arvind Ramanathan,29D0D0,Avenue Draper Climb,4783902,
185,45.463426,-73.623385,De Maisonneuve Path (Benny to West Broadway):  [Arvind Ramanathan],Arvind Ramanathan,29D0D0,De Maisonneuve Path (Benny to West Broadway),3857480,
186,45.463848,-73.628764,Sherbrooke Reverse:  [Arvind Ramanathan],Arvind Ramanathan,29D0D0,Sherbrooke Reverse,3903966,
187,45.474135,-73.615413,Girouard Sprint:  [UNCLAIMED],UNCLAIMED,000000,Girouard Sprint,7217227,
188,45.469479,-73.641762,Fielding Sprint Reverse:  [UNCLAIMED],UNCLAIMED,000000,Fielding Sprint Reverse,7373535,
189,45.480414,-73.630092,Clan Sprint:  [UNCLAIMED],UNCLAIMED,000000,Clan Sprint,7336099,
190,45.4721,-73.61281,Cavendish to Girouard Reverse:  [UNCLAIMED],UNCLAIMED,000000,Cavendish to Girouard Reverse,5149290,
191,45.476456,-73.636816,Fielding Sprint:  [UNCLAIMED],UNCLAIMED,000000,Fielding Sprint,5801166,
192,45.452627968,-73.6443775054,Sherb down West to Luc:  [UNCLAIMED],UNCLAIMED,000000,Sherb down West to Luc,3596608,
193,45.457056,-73.666987,MoWest Trapezoid:  [UNCLAIMED],UNCLAIMED,000000,MoWest Trapezoid,7207347,
194,45.472259,-73.580563,Short sprint to underpass:  [Mario Born],Mario Born,FF9233,Short sprint to underpass,7824610,
195,45.475459,-73.594416,Chemin GLEN:  [UNCLAIMED],UNCLAIMED,000000,Chemin GLEN,6962089,
196,45.4626699071,-73.5608736333,Reverse Park to Arena Sprint:  [Josh Felker],Josh Felker,814A19,Reverse Park to Arena Sprint,2120315,
197,45.4648677,-73.5952593,De l'Église to Atwater:  [Mario Born],Mario Born,FF9233,De l'Église to Atwater,2201575,
198,45.480133,-73.572601,Charlevoix to Pitt:  [Josh Felker],Josh Felker,814A19,Charlevoix to Pitt,4237634,
199,45.470298,-73.58226,Pitt to De L'Eglise Bridge:  [Yibing Wen],Yibing Wen,8126C0,Pitt to De L'Eglise Bridge,4237652,
200,45.4695027508,-73.562340131,Park to Arena Sprint:  [Marc Devlin],Marc Devlin,2A4BD7,Park to Arena Sprint,2082981,
201,45.4667722167,-73.5600334,Pont de l'Île des Soeurs:  [Marc Devlin],Marc Devlin,2A4BD7,Pont de l'Île des Soeurs,2246181,
202,45.47996471,-73.6034877,Lower Grovesnor:  [UNCLAIMED],UNCLAIMED,000000,Lower Grovesnor,1896995,
203,45.45535,-73.563458,Crescendo Restaurant to Msgr Richard School:  [Josh Felker],Josh Felker,814A19,Crescendo Restaurant to Msgr Richard School,9599034,
204,45.4669687338,-73.5322880745,Estacade Pont East:  [UNCLAIMED],UNCLAIMED,000000,Estacade Pont East,661468,
205,45.466225,-73.523023,Estacade :  [UNCLAIMED],UNCLAIMED,000000,Estacade ,5840596,
206,45.455823,-73.503075,Voie Maritime (Sprint Est):  [UNCLAIMED],UNCLAIMED,000000,Voie Maritime (Sprint Est),7974316,
207,45.4650519602,-73.5044547077,Estacade Pont West:  [Yibing Wen],Yibing Wen,8126C0,Estacade Pont West,661472,
208,45.4639579981,-73.5037543219,Voie Maritime 20k aller-retour:  [UNCLAIMED],UNCLAIMED,000000,Voie Maritime 20k aller-retour,1859809,
209,45.471134875,-73.5530218855,Pont de l'Ile des Soeurs - Est:  [UNCLAIMED],UNCLAIMED,000000,Pont de l'Ile des Soeurs - Est,2147144,
210,45.4748439509,-73.4979630075,Riverside - Hugo a Simard:  [UNCLAIMED],UNCLAIMED,000000,Riverside - Hugo a Simard,3679896,
211,45.458475,-73.503263,TT aller-retour ±10k:  [UNCLAIMED],UNCLAIMED,000000,TT aller-retour ±10k,7294983,
212,45.461417,-73.55215,Loop Piste IDS:  [UNCLAIMED],UNCLAIMED,000000,Loop Piste IDS,8372511,
213,45.460368,-73.545442,Ile de Soeurs path:  [UNCLAIMED],UNCLAIMED,000000,Ile de Soeurs path,7722345,
214,45.471466,-73.466921,Rue Campbell Climb:  [UNCLAIMED],UNCLAIMED,000000,Rue Campbell Climb,3999107,
215,45.462577,-73.475902,Pelletier Overpass direction Champlain Mall:  [UNCLAIMED],UNCLAIMED,000000,Pelletier Overpass direction Champlain Mall,7636328,
216,45.45681632,-73.48889631,Rome: Tisserand à Pelletier:  [Yibing Wen],Yibing Wen,8126C0,Rome: Tisserand à Pelletier,3814709,
217,45.453427,-73.46182,Rome ( Naples to Niagara ):  [UNCLAIMED],UNCLAIMED,000000,Rome ( Naples to Niagara ),7453872,
218,45.452093,-73.4566,Milan Rome a A10:  [UNCLAIMED],UNCLAIMED,000000,Milan Rome a A10,7768389,
219,45.456062,-73.468898,Rome Sprint - Tisserand à Pelletier:  [UNCLAIMED],UNCLAIMED,000000,Rome Sprint - Tisserand à Pelletier,7155431,
220,45.456498,-73.485169,Brossard BackyardZ - Rome to Rivard:  [Yibing Wen],Yibing Wen,8126C0,Brossard BackyardZ - Rome to Rivard,7110468,
221,45.455998,-73.447607,Malo sprint:  [UNCLAIMED],UNCLAIMED,000000,Malo sprint,9127067,
222,45.4494207166,-73.4795269277,1 lap Crit Brossard:  [UNCLAIMED],UNCLAIMED,000000,1 lap Crit Brossard,649307,
223,45.4729035404,-73.4414590895,Boulevard Milan - Westbound:  [UNCLAIMED],UNCLAIMED,000000,Boulevard Milan - Westbound,2091947,
224,45.470902,-73.398023,Kimber to College:  [UNCLAIMED],UNCLAIMED,000000,Kimber to College,9240704,
225,45.4755277,-73.4070132,Boulevard Westley - Voie ferrée:  [UNCLAIMED],UNCLAIMED,000000,Boulevard Westley - Voie ferrée,3811700,
226,45.459214499,-73.4197672686,Golf boulevard du Quartier:  [UNCLAIMED],UNCLAIMED,000000,Golf boulevard du Quartier,1896847,
227,45.449098,-73.431226,Du Quartier - Velo path :  [UNCLAIMED],UNCLAIMED,000000,Du Quartier - Velo path ,7707301,
228,45.457443,-73.420831,Neron Shop Rides : Quartier Sprint IN:  [UNCLAIMED],UNCLAIMED,000000,Neron Shop Rides : Quartier Sprint IN,5292544,
229,45.449636,-73.429904,Neron Shop Rides: Quartier Sprint OUT:  [UNCLAIMED],UNCLAIMED,000000,Neron Shop Rides: Quartier Sprint OUT,5292531,
230,45.449294,-73.430952,Sprint piste cyclable du Quartier (safe):  [UNCLAIMED],UNCLAIMED,000000,Sprint piste cyclable du Quartier (safe),7546609,
231,45.477925,-73.391046,Training Critérium...Labatt-SQ:  [UNCLAIMED],UNCLAIMED,000000,Training Critérium...Labatt-SQ,7454763,
232,45.465117,-73.415615,Nantel:  [UNCLAIMED],UNCLAIMED,000000,Nantel,9906190,
233,45.46109,-73.419846,Rue David Sprint - Nord:  [UNCLAIMED],UNCLAIMED,000000,Rue David Sprint - Nord,9564414,
234,45.49789,-74.002253,1ere cote Oka - Go les jambes!:  [UNCLAIMED],UNCLAIMED,000000,1ere cote Oka - Go les jambes!,4277158,
235,45.4932519981,-73.9974276597,LongerSprint:  [UNCLAIMED],UNCLAIMED,000000,LongerSprint,1591079,
236,45.497875,-74.001464,WCG : Ferries Loop : Oka la première:  [UNCLAIMED],UNCLAIMED,000000,WCG : Ferries Loop : Oka la première,5595503,
237,45.491931,-74.010827,Descente vers chemin d'Oka:  [UNCLAIMED],UNCLAIMED,000000,Descente vers chemin d'Oka,7644165,
238,45.499325,-74.02267,Ch. Oka Descent Rue Lapierre to Aut. 640:  [UNCLAIMED],UNCLAIMED,000000,Ch. Oka Descent Rue Lapierre to Aut. 640,9981443,
239,45.485424,-74.021596,Parc d'oka 2e côte (o vers e):  [UNCLAIMED],UNCLAIMED,000000,Parc d'oka 2e côte (o vers e),10065456,
240,45.4906571656,-73.8712167833,Île Bizard Anti-clockwise complete loop:  [UNCLAIMED],UNCLAIMED,000000,Île Bizard Anti-clockwise complete loop,1302892,
241,45.491976,-73.869263,Lights to Laurier:  [UNCLAIMED],UNCLAIMED,000000,Lights to Laurier,6029548,
242,45.5071234144,-73.9041358698,ch. Bord du Lac-mtée Wilson-ch. Cherrier TT:  [UNCLAIMED],UNCLAIMED,000000,ch. Bord du Lac-mtée Wilson-ch. Cherrier TT,694824,
243,45.4975959566,-73.8920293004,Montée de l'Église:  [UNCLAIMED],UNCLAIMED,000000,Montée de l'Église,2273178,
244,45.4866855685,-73.8793104328,Montée de l'Église Ile Bizard:  [UNCLAIMED],UNCLAIMED,000000,Montée de l'Église Ile Bizard,1255097,
245,45.493149357,-73.8869107236,Jacques Bizard @ De L'Église:  [UNCLAIMED],UNCLAIMED,000000,Jacques Bizard @ De L'Église,2273173,
246,45.485136,-73.864556,Jacques to Jean sprint:  [UNCLAIMED],UNCLAIMED,000000,Jacques to Jean sprint,9435280,
247,45.488348,-73.881194,WCG : Ferries Loop : de l'église:  [UNCLAIMED],UNCLAIMED,000000,WCG : Ferries Loop : de l'église,5590591,
248,45.488331,-73.886794,End of Chevremont climb:  [UNCLAIMED],UNCLAIMED,000000,End of Chevremont climb,9282756,
249,45.494296,-73.875826,Chevremont :  [UNCLAIMED],UNCLAIMED,000000,Chevremont ,5902900,
250,45.487379,-73.799802,Salaberry Strut:  [UNCLAIMED],UNCLAIMED,000000,Salaberry Strut,9296359,
251,45.497287,-73.844396,bld Pierrefonds Aragon a Des Source:  [UNCLAIMED],UNCLAIMED,000000,bld Pierrefonds Aragon a Des Source,5107911,
252,45.498483,-73.824856,Woodpark South:  [UNCLAIMED],UNCLAIMED,000000,Woodpark South,9296393,
253,45.489866,-73.816746,Woodpark North:  [UNCLAIMED],UNCLAIMED,000000,Woodpark North,9296381,
254,45.499691,-73.837646,Fredmir:  [UNCLAIMED],UNCLAIMED,000000,Fredmir,9761756,
255,45.507459,-73.80475,Will Homestretch 1:  [UNCLAIMED],UNCLAIMED,000000,Will Homestretch 1,9903057,
256,45.50633905,-73.81968388,Boulevard des Sources - de Salaberry:  [UNCLAIMED],UNCLAIMED,000000,Boulevard des Sources - de Salaberry,2219380,
257,45.489639,-73.816978,Westpark Stretch:  [UNCLAIMED],UNCLAIMED,000000,Westpark Stretch,9903186,
258,45.48766134,-73.80018193,de Salaberry - Boulevard des Sources:  [UNCLAIMED],UNCLAIMED,000000,de Salaberry - Boulevard des Sources,2219386,
259,45.507765,-73.760943,Gouin / A13 - Sunnybrooke:  [UNCLAIMED],UNCLAIMED,000000,Gouin / A13 - Sunnybrooke,7246595,
260,45.504898,-73.785964,Bd Gouin O - From Bd Sunnybrooke to Autoroute Chomedey:  [UNCLAIMED],UNCLAIMED,000000,Bd Gouin O - From Bd Sunnybrooke to Autoroute Chomedey,4287829,
261,45.50838,-73.750589,bois-de-liesse:  [UNCLAIMED],UNCLAIMED,000000,bois-de-liesse,5642098,
262,45.488541,-73.764179,big o:  [UNCLAIMED],UNCLAIMED,000000,big o,7699214,
263,45.493125,-73.757807,Rue Douglas Nord:  [UNCLAIMED],UNCLAIMED,000000,Rue Douglas Nord,8003078,
264,45.502341,-73.732052,Sprint Guénette:  [UNCLAIMED],UNCLAIMED,000000,Sprint Guénette,9229339,
265,45.495029,-73.743274,Ardene TT loop:  [UNCLAIMED],UNCLAIMED,000000,Ardene TT loop,7548356,
266,45.491967,-73.73219,Levy + Dobrin:  [UNCLAIMED],UNCLAIMED,000000,Levy + Dobrin,5066846,
267,45.486458,-73.756777,Place Transcanadienne Climb:  [UNCLAIMED],UNCLAIMED,000000,Place Transcanadienne Climb,4178558,
268,45.4953660934,-73.7815074868,Dans le Bois-de-Liesse vers Est:  [UNCLAIMED],UNCLAIMED,000000,Dans le Bois-de-Liesse vers Est,663577,
269,45.50941,-73.697479,Sprint Alexie-Nihon - Thimens@Cote-Vertu:  [UNCLAIMED],UNCLAIMED,000000,Sprint Alexie-Nihon - Thimens@Cote-Vertu,4946233,
270,45.513695,-73.720265,Cavendish Sprint:  [UNCLAIMED],UNCLAIMED,000000,Cavendish Sprint,5019516,
271,45.501323,-73.726173,E. Hemingway - Celine-Marier@Cavendish:  [UNCLAIMED],UNCLAIMED,000000,E. Hemingway - Celine-Marier@Cavendish,4946246,
272,45.508309,-73.715327,E. Emingway - Cavendish@Poirier:  [UNCLAIMED],UNCLAIMED,000000,E. Emingway - Cavendish@Poirier,4946227,
273,45.494567,-73.723696,The Machine Segment:  [UNCLAIMED],UNCLAIMED,000000,The Machine Segment,4747609,
274,45.512184,-73.710531,E. Emingway - Poirier@Cavendish:  [UNCLAIMED],UNCLAIMED,000000,E. Emingway - Poirier@Cavendish,4946243,
275,45.502001,-73.706382,The Machine V2:  [UNCLAIMED],UNCLAIMED,000000,The Machine V2,4950097,
276,45.513299,-73.676023,Rue de l'Église_Saint-Croix@Alexis-Nihon:  [UNCLAIMED],UNCLAIMED,000000,Rue de l'Église_Saint-Croix@Alexis-Nihon,7715355,
277,45.4973,-73.67436,Authier:  [UNCLAIMED],UNCLAIMED,000000,Authier,8218165,
278,45.484677,-73.692569,Liesse Sprint:  [Marc Devlin],Marc Devlin,2A4BD7,Liesse Sprint,5677330,
279,45.4968096502,-73.6175446026,Côte de la Polytechnique:  [UNCLAIMED],UNCLAIMED,000000,Côte de la Polytechnique,616310,
280,45.500599,-73.614416,Flat part 2 - Top of Polytech:  [UNCLAIMED],UNCLAIMED,000000,Flat part 2 - Top of Polytech,8042275,
281,45.502877,-73.618106,Chemin de la Rampe (avec élan par av. Louis-Collin):  [UNCLAIMED],UNCLAIMED,000000,Chemin de la Rampe (avec élan par av. Louis-Collin),5674754,
282,45.5025325622,-73.6127688456,Descente ch. de la Rampe:  [UNCLAIMED],UNCLAIMED,000000,Descente ch. de la Rampe,674445,
283,45.491127,-73.619582,Oratoire Saint-Joseph:  [UNCLAIMED],UNCLAIMED,000000,Oratoire Saint-Joseph,5136507,
284,45.5140473,-73.6475702,Graham_Kindersley@Glengarry:  [UNCLAIMED],UNCLAIMED,000000,Graham_Kindersley@Glengarry,2202269,
285,45.513146,-73.632939,Reverse Tit Sprint:  [Yibing Wen],Yibing Wen,8126C0,Reverse Tit Sprint,4446403,
286,45.500741,-73.625584,Côte Ste-Cath bump & descent:  [UNCLAIMED],UNCLAIMED,000000,Côte Ste-Cath bump & descent,7615912,
287,45.496913,-73.643458,Victoria Nord (Vézina - Jean-Talon):  [UNCLAIMED],UNCLAIMED,000000,Victoria Nord (Vézina - Jean-Talon),8341070,
288,45.509483,-73.658896,Graham N-S:  [UNCLAIMED],UNCLAIMED,000000,Graham N-S,4782450,
289,45.5146049336,-73.5905919224,Camillien Houde:  [UNCLAIMED],UNCLAIMED,000000,Camillien Houde,638378,
290,45.513068,-73.589766,Faux-Plat Camilien Houde:  [UNCLAIMED],UNCLAIMED,000000,Faux-Plat Camilien Houde,7795689,
291,45.508525,-73.591063,Descente de Camilien-Houde:  [UNCLAIMED],UNCLAIMED,000000,Descente de Camilien-Houde,661925,
292,45.488943,-73.594291,Mount Pleasant:  [UNCLAIMED],UNCLAIMED,000000,Mount Pleasant,674757,
293,45.510657,-73.59342,Voie Camilien Houde IV:  [UNCLAIMED],UNCLAIMED,000000,Voie Camilien Houde IV,5356269,
294,45.499057,-73.601005,remembrance pitch:  [UNCLAIMED],UNCLAIMED,000000,remembrance pitch,7015128,
295,45.5123269149,-73.5792665133,Parc:  [Yibing Wen],Yibing Wen,8126C0,Parc,695605,
296,45.4900809936,-73.5569512378,Canal Lachine détour (ouest):  [Mario Born],Mario Born,FF9233,Canal Lachine détour (ouest),3876533,
297,45.483232,-73.579054,Atwater Climb:  [Sasha Wloski],Sasha Wloski,FFEE33,Atwater Climb,5032748,
298,45.5123950448,-73.5551713408,Montée Berry (petite):  [Yibing Wen],Yibing Wen,8126C0,Montée Berry (petite),2027211,
299,45.500236,-73.522726,Circuit Gilles-Villeneuve 4.03 km:  [UNCLAIMED],UNCLAIMED,000000,Circuit Gilles-Villeneuve 4.03 km,3984793,
300,45.510074,-73.52519,CGV REctiligne:  [Josh Felker],Josh Felker,814A19,CGV REctiligne,4065389,
301,45.498539,-73.525997,Les courbes CGV:  [Arvind Ramanathan],Arvind Ramanathan,29D0D0,Les courbes CGV,5467272,
302,45.503895,-73.529869,Pavillon du Canada Sprint:  [Yibing Wen],Yibing Wen,8126C0,Pavillon du Canada Sprint,7047331,
303,45.510147,-73.527766,CGV no hairpin - EO:  [Josh Felker],Josh Felker,814A19,CGV no hairpin - EO,4487080,
304,45.502645,-73.523258,Salut Gilles (Sprint) Between the 2 overpasses:  [Josh Felker],Josh Felker,814A19,Salut Gilles (Sprint) Between the 2 overpasses,3875673,
305,45.5130604841,-73.526887279,GV Hairpin to finish line:  [Josh Felker],Josh Felker,814A19,GV Hairpin to finish line,1568696,
306,45.492197,-73.545126,Habitat67 direction EST:  [Yibing Wen],Yibing Wen,8126C0,Habitat67 direction EST,5184907,
307,45.502741,-73.544255,Habitat67 direction OUEST:  [Yibing Wen],Yibing Wen,8126C0,Habitat67 direction OUEST,5184935,
308,45.5024242681,-73.5442161094,Pont de la concorde:  [Yibing Wen],Yibing Wen,8126C0,Pont de la concorde,2053809,
309,45.507055,-73.46152,Flipper Ramp 116 - Direction sud:  [UNCLAIMED],UNCLAIMED,000000,Flipper Ramp 116 - Direction sud,7042759,
310,45.503391,-73.458674,Stratton-Legault Sud:  [UNCLAIMED],UNCLAIMED,000000,Stratton-Legault Sud,8422147,
311,45.494436,-73.44212,Legault-Stratton Nord:  [UNCLAIMED],UNCLAIMED,000000,Legault-Stratton Nord,8422124,
312,45.496985,-73.446943,Montée Overpass 116:  [UNCLAIMED],UNCLAIMED,000000,Montée Overpass 116,4612968,
313,45.508835,-73.470904,St-Helene Ouest - No Light - 1 de 2:  [UNCLAIMED],UNCLAIMED,000000,St-Helene Ouest - No Light - 1 de 2,7691904,
314,45.515096,-73.490388,St-Hélène Est - Longueuil - No Light - 2 de 2:  [UNCLAIMED],UNCLAIMED,000000,St-Hélène Est - Longueuil - No Light - 2 de 2,4407608,
315,45.5108764954,-73.4408302792,Faux Paris-Roubaix North:  [UNCLAIMED],UNCLAIMED,000000,Faux Paris-Roubaix North,1735630,
316,45.507868,-73.457772,Faux Paris-Roubaix Sud:  [UNCLAIMED],UNCLAIMED,000000,Faux Paris-Roubaix Sud,4304348,
317,45.5099244789,-73.4414298367,116 Forest:  [UNCLAIMED],UNCLAIMED,000000,116 Forest,1844285,
318,45.495057,-73.482411,Churchill (tasch-victoria):  [UNCLAIMED],UNCLAIMED,000000,Churchill (tasch-victoria),8015813,
319,45.51002,-73.41361,Route de l'aéroport 2:  [UNCLAIMED],UNCLAIMED,000000,Route de l'aéroport 2,5055455,
320,45.488994,-73.431871,Montée St-Hubert to track (Sprint):  [UNCLAIMED],UNCLAIMED,000000,Montée St-Hubert to track (Sprint),7833651,
321,45.488443,-73.40657,Sprint du boisée:  [UNCLAIMED],UNCLAIMED,000000,Sprint du boisée,5100229,
322,45.50963,-73.398957,Raoul II (Est):  [UNCLAIMED],UNCLAIMED,000000,Raoul II (Est),7389975,
323,45.5072589773,-73.4264603745,Raoul (est):  [UNCLAIMED],UNCLAIMED,000000,Raoul (est),2255330,
324,45.496383,-73.398984,Sprint Jacques Marcil (Nord):  [UNCLAIMED],UNCLAIMED,000000,Sprint Jacques Marcil (Nord),5541594,
325,45.485902,-73.396635,Tite rue de la piste cyclable:  [UNCLAIMED],UNCLAIMED,000000,Tite rue de la piste cyclable,7379139,
326,45.4836,-73.387791,Sprint Petro-Canada...Mitsubishi:  [UNCLAIMED],UNCLAIMED,000000,Sprint Petro-Canada...Mitsubishi,7454794,
327,45.50918,-73.405512,Moreau:  [UNCLAIMED],UNCLAIMED,000000,Moreau,5170376,
328,45.498114,-73.416883,Rue Prince Charles:  [UNCLAIMED],UNCLAIMED,000000,Rue Prince Charles,5149036,
329,45.533362,-74.0062004,Stretch Mtée du Village:  [UNCLAIMED],UNCLAIMED,000000,Stretch Mtée du Village,1729037,
330,45.525782,-73.995199,Côte de St-Joseph-du-lac:  [UNCLAIMED],UNCLAIMED,000000,Côte de St-Joseph-du-lac,4953439,
331,45.539047,-74.01397,Descente St-Joseph:  [UNCLAIMED],UNCLAIMED,000000,Descente St-Joseph,4996030,
332,45.533342,-74.005889,WCG : Ferries Loop : St-Joseph descent to Ultramar:  [UNCLAIMED],UNCLAIMED,000000,WCG : Ferries Loop : St-Joseph descent to Ultramar,5595648,
333,45.5455851,-74.0094784,Chemin Principal Climb:  [UNCLAIMED],UNCLAIMED,000000,Chemin Principal Climb,1217574,
334,45.529188,-73.932592,Chemin d'Oka - From Rue Louise to 5e Avenue:  [UNCLAIMED],UNCLAIMED,000000,Chemin d'Oka - From Rue Louise to 5e Avenue,4830794,
335,45.544651,-73.920374,Boulevard Industriel Climb:  [UNCLAIMED],UNCLAIMED,000000,Boulevard Industriel Climb,4140830,
336,45.535369,-73.884214,Montée 2-Montagnes:  [UNCLAIMED],UNCLAIMED,000000,Montée 2-Montagnes,5083642,
337,45.521685,-73.871031,Rue les Érables à Rue Les Peupliers:  [UNCLAIMED],UNCLAIMED,000000,Rue les Érables à Rue Les Peupliers,7927700,
338,45.531115,-73.881954,Erables TT:  [UNCLAIMED],UNCLAIMED,000000,Erables TT,7987796,
339,45.534795,-73.901636,Chemin d'Oka - From 20e Avenue to 8e Avenue:  [UNCLAIMED],UNCLAIMED,000000,Chemin d'Oka - From 20e Avenue to 8e Avenue,4830813,
340,45.5403558,-73.8576803,Ch St-Antoine Westbound:  [UNCLAIMED],UNCLAIMED,000000,Ch St-Antoine Westbound,2654564,
341,45.543607,-73.874687,Montée Ste-Rose  21e Av - 9e Av:  [UNCLAIMED],UNCLAIMED,000000,Montée Ste-Rose  21e Av - 9e Av,8283439,
342,45.535608,-73.878066,Up St Antoine :  [UNCLAIMED],UNCLAIMED,000000,Up St Antoine ,7911162,
343,45.517243,-73.866369,The Island Sprint:  [UNCLAIMED],UNCLAIMED,000000,The Island Sprint,5650539,
344,45.528108,-73.883045,Sprint to the boat:  [UNCLAIMED],UNCLAIMED,000000,Sprint to the boat,9674356,
345,45.519341,-73.853251,Ile Bigras:  [UNCLAIMED],UNCLAIMED,000000,Ile Bigras,7544476,
346,45.5208398122,-73.8333234563,Sprint Bord de L`eau:  [UNCLAIMED],UNCLAIMED,000000,Sprint Bord de L`eau,2821633,
347,45.522744,-73.844455,Golf Sprint:  [UNCLAIMED],UNCLAIMED,000000,Golf Sprint,7543490,
348,45.5349221639,-73.8192472234,St Martin Est:  [UNCLAIMED],UNCLAIMED,000000,St Martin Est,1632870,
349,45.544285,-73.807755,Montée Champagne Pt. 2 (Reverse):  [UNCLAIMED],UNCLAIMED,000000,Montée Champagne Pt. 2 (Reverse),9378444,
350,45.53965,-73.799717,St-Martin de Champagne à Hotel de ville:  [UNCLAIMED],UNCLAIMED,000000,St-Martin de Champagne à Hotel de ville,7763548,
351,45.533382,-73.80452,Sprint - Pierre - Hotel de Ville:  [UNCLAIMED],UNCLAIMED,000000,Sprint - Pierre - Hotel de Ville,4753454,
352,45.530657,-73.815731,Hôtel-de-Ville à des Jacinthes:  [UNCLAIMED],UNCLAIMED,000000,Hôtel-de-Ville à des Jacinthes,5800805,
353,45.5368454754,-73.7969169114,Principale Ste-Dorothee:  [UNCLAIMED],UNCLAIMED,000000,Principale Ste-Dorothee,1632845,
354,45.539908,-73.799898,Montée Champagne Pt. 2:  [UNCLAIMED],UNCLAIMED,000000,Montée Champagne Pt. 2,9378400,
355,45.541576,-73.804109,Bois St Do. East West:  [UNCLAIMED],UNCLAIMED,000000,Bois St Do. East West,8847403,
356,45.522526,-73.781618,Samson / pont 13:  [UNCLAIMED],UNCLAIMED,000000,Samson / pont 13,7579966,
357,45.536871,-73.732308,Bd du Curé Labelle - A13:  [UNCLAIMED],UNCLAIMED,000000,Bd du Curé Labelle - A13,7983208,
358,45.529552,-73.755325,Levesque - Samson - St-Max:  [UNCLAIMED],UNCLAIMED,000000,Levesque - Samson - St-Max,4691673,
359,45.53545,-73.736298,Levesque - St-Max - Samson:  [UNCLAIMED],UNCLAIMED,000000,Levesque - St-Max - Samson,4675140,
360,45.524187,-73.777012,A13 - Bd du Curé-Labelle:  [UNCLAIMED],UNCLAIMED,000000,A13 - Bd du Curé-Labelle,7342460,
361,45.544387,-73.739168,Montee Chomeday Nord I:  [UNCLAIMED],UNCLAIMED,000000,Montee Chomeday Nord I,7750669,
362,45.530625,-73.780113,Elodie Boucher:  [UNCLAIMED],UNCLAIMED,000000,Elodie Boucher,7523992,
363,45.542576,-73.770524,Eliot sprint:  [UNCLAIMED],UNCLAIMED,000000,Eliot sprint,7599020,
364,45.522913,-73.770955,Chomedey Hydro Line Pt. 5 (Reverse):  [UNCLAIMED],UNCLAIMED,000000,Chomedey Hydro Line Pt. 5 (Reverse),9381672,
365,45.540695,-73.767087,Souvenir bump:  [UNCLAIMED],UNCLAIMED,000000,Souvenir bump,7598926,
366,45.546173,-73.697782,Pont de Train:  [UNCLAIMED],UNCLAIMED,000000,Pont de Train,7360610,
367,45.549588,-73.701011,Pont de Train:  [UNCLAIMED],UNCLAIMED,000000,Pont de Train,7364421,
368,45.547592,-73.68899,Parc de la Merci Sprint (Ouest):  [UNCLAIMED],UNCLAIMED,000000,Parc de la Merci Sprint (Ouest),7305975,
369,45.54831,-73.685002,Parc de la Merci E-O:  [UNCLAIMED],UNCLAIMED,000000,Parc de la Merci E-O,5021049,
370,45.543995,-73.704065,Parc de la Merci Ouest:  [UNCLAIMED],UNCLAIMED,000000,Parc de la Merci Ouest,4412355,
371,45.51758,-73.683485,O'Brien - Rochon à Dudemaine:  [UNCLAIMED],UNCLAIMED,000000,O'Brien - Rochon à Dudemaine,7194275,
372,45.538745,-73.71019,Gouin / A15 - Laurentien:  [UNCLAIMED],UNCLAIMED,000000,Gouin / A15 - Laurentien,7246570,
373,45.542864,-73.713237,Boul. des Prairies Sprint I (Est):  [UNCLAIMED],UNCLAIMED,000000,Boul. des Prairies Sprint I (Est),7301855,
374,45.546954,-73.707312,Boul. des Prairies Sprint III (Est):  [UNCLAIMED],UNCLAIMED,000000,Boul. des Prairies Sprint III (Est),7301873,
375,45.532165,-73.722527,Bocage St.:  [UNCLAIMED],UNCLAIMED,000000,Bocage St.,7624109,
376,45.543905,-73.629052,Lajeunesse - Jarry/40 (no inters) :  [UNCLAIMED],UNCLAIMED,000000,Lajeunesse - Jarry/40 (no inters) ,5238480,
377,45.546534,-73.638162,Sprint on Lajeunesse - Crémazie/Chabanel:  [UNCLAIMED],UNCLAIMED,000000,Sprint on Lajeunesse - Crémazie/Chabanel,7581150,
378,45.535555,-73.620053,Sprint Jean-Talon - Jarry:  [UNCLAIMED],UNCLAIMED,000000,Sprint Jean-Talon - Jarry,7179741,
379,45.517222,-73.639572,TMR Sprint GMA:  [UNCLAIMED],UNCLAIMED,000000,TMR Sprint GMA,7155603,
380,45.53505,-73.617393,Rue Saint-Dominique S. (Jean-Talon/Avenue Mozart):  [UNCLAIMED],UNCLAIMED,000000,Rue Saint-Dominique S. (Jean-Talon/Avenue Mozart),8466759,
381,45.547412,-73.624396,La course des tomates N-S:  [UNCLAIMED],UNCLAIMED,000000,La course des tomates N-S,5136368,
382,45.543229,-73.616009,Rue Boyer S. (Everett/Jean-Talon):  [UNCLAIMED],UNCLAIMED,000000,Rue Boyer S. (Everett/Jean-Talon),8504564,
383,45.5205959827,-73.6287023406,Boul. Graham Rockland-Laird:  [UNCLAIMED],UNCLAIMED,000000,Boul. Graham Rockland-Laird,2250660,
384,45.529125,-73.617934,Beaumont - Parc @ Graham:  [Yibing Wen],Yibing Wen,8126C0,Beaumont - Parc @ Graham,4853209,
385,45.544539,-73.651443,St-Laurent (Chabanel-Sauvé):  [UNCLAIMED],UNCLAIMED,000000,St-Laurent (Chabanel-Sauvé),5652251,
386,45.5170843843,-73.5649731383,Berri climb:  [Patrick Santeusanio],Patrick Santeusanio,AD2323,Berri climb,662274,
387,45.5160342471,-73.5625345916,Berri hill:  [Patrick Santeusanio],Patrick Santeusanio,AD2323,Berri hill,1444878,
388,45.5291291373,-73.6078578886,Sous le viaduc St-Urbain :  [Frank Oduro],Frank Oduro,FFCDF3,Sous le viaduc St-Urbain ,1821989,
389,45.522191,-73.567052,Pew pew pew :  [UNCLAIMED],UNCLAIMED,000000,Pew pew pew ,7671659,
390,45.521463,-73.578482,Rachel St-Denis-St-Laurent:  [Mike Sants],Mike Sants,1D6914,Rachel St-Denis-St-Laurent,5572973,
391,45.5230866652,-73.5930012167,Saint Laurent:  [UNCLAIMED],UNCLAIMED,000000,Saint Laurent,3463240,
392,45.52602,-73.562179,Champlain (The Peak):  [UNCLAIMED],UNCLAIMED,000000,Champlain (The Peak),2499441,
393,45.534091,-73.588813,Rue St-Grégoire Dir. Ouest:  [UNCLAIMED],UNCLAIMED,000000,Rue St-Grégoire Dir. Ouest,8340933,
394,45.529731,-73.570029,Parc Laf Straight:  [UNCLAIMED],UNCLAIMED,000000,Parc Laf Straight,4713442,
395,45.5414515006,-73.5617328266,Molson Upward Wind Tunnel:  [UNCLAIMED],UNCLAIMED,000000,Molson Upward Wind Tunnel,3903364,
396,45.5192190874,-73.5316503793,montée du Pont J-C Ile Sainte-Hélène:  [UNCLAIMED],UNCLAIMED,000000,montée du Pont J-C Ile Sainte-Hélène,2296852,
397,45.518729,-73.531254,Montée Pont JC:  [UNCLAIMED],UNCLAIMED,000000,Montée Pont JC,847410,
398,45.519365,-73.514566,Jacques-Cartier bridge North - To Ile St-Helene path:  [Yibing Wen],Yibing Wen,8126C0,Jacques-Cartier bridge North - To Ile St-Helene path,4233292,
399,45.531234,-73.518218,Viaduc Saint-Charles:  [UNCLAIMED],UNCLAIMED,000000,Viaduc Saint-Charles,4000955,
400,45.536408,-73.541811,Notre-Dame Sprint Ouest:  [Yibing Wen],Yibing Wen,8126C0,Notre-Dame Sprint Ouest,4475334,
401,45.53212,-73.52334,Chemin de la rive:  [UNCLAIMED],UNCLAIMED,000000,Chemin de la rive,4294903,
402,45.529778,-73.544478,Notre-Dame Sprint Est:  [Yibing Wen],Yibing Wen,8126C0,Notre-Dame Sprint Est,4475321,
403,45.517627,-73.497754,Ste-Hélène (De Ste-Foy à Desaulniers:  [UNCLAIMED],UNCLAIMED,000000,Ste-Hélène (De Ste-Foy à Desaulniers,8345510,
404,45.544452,-73.508188,longueuil beach:  [UNCLAIMED],UNCLAIMED,000000,longueuil beach,4918017,
405,45.517453,-73.548621,Molson Brasserie:  [UNCLAIMED],UNCLAIMED,000000,Molson Brasserie,5077422,
406,45.541904,-73.471772,Fernand-Lafontaine:  [UNCLAIMED],UNCLAIMED,000000,Fernand-Lafontaine,2305416,
407,45.533113,-73.491115,Leblanc (ouest):  [UNCLAIMED],UNCLAIMED,000000,Leblanc (ouest),4237262,
408,45.536833,-73.468968,Sprint Roland-Therrien:  [UNCLAIMED],UNCLAIMED,000000,Sprint Roland-Therrien,7373403,
409,45.516695,-73.479075,Boul Nobert:  [UNCLAIMED],UNCLAIMED,000000,Boul Nobert,7317758,
410,45.538134,-73.456651,Boul. Beliveau (De J-C à Roberval):  [UNCLAIMED],UNCLAIMED,000000,Boul. Beliveau (De J-C à Roberval),9789311,
411,45.526505,-73.4646372167,Boul Jacques Cartier:  [UNCLAIMED],UNCLAIMED,000000,Boul Jacques Cartier,1405498,
412,45.539673,-73.464149,Boul. Fernand-Lafontaine:  [UNCLAIMED],UNCLAIMED,000000,Boul. Fernand-Lafontaine,2297740,
413,45.544049,-73.470225,bute Parc régional:  [UNCLAIMED],UNCLAIMED,000000,bute Parc régional,3983508,
414,45.547401,-73.456964,michel-chartrand:  [UNCLAIMED],UNCLAIMED,000000,michel-chartrand,7707827,
415,45.533968,-73.442838,Circuit Archambault-Robin:  [UNCLAIMED],UNCLAIMED,000000,Circuit Archambault-Robin,7373375,
416,45.523296,-73.393698,Clairevue Northbound (Approaches 24'):  [UNCLAIMED],UNCLAIMED,000000,Clairevue Northbound (Approaches 24'),8558081,
417,45.521392,-73.393826,CSA Lap:  [UNCLAIMED],UNCLAIMED,000000,CSA Lap,3944939,
418,45.52283,-73.43336,Vauquelin-R100:  [UNCLAIMED],UNCLAIMED,000000,Vauquelin-R100,9847460,
419,45.562844,-73.98165,Ostrich Climb:  [UNCLAIMED],UNCLAIMED,000000,Ostrich Climb,7175185,
420,45.56654,-73.990891,descente riviere nord:  [UNCLAIMED],UNCLAIMED,000000,descente riviere nord,4042083,
421,45.565924,-73.988981,descente fresniere:  [UNCLAIMED],UNCLAIMED,000000,descente fresniere,4035620,
422,45.566269,-73.989812,descente:  [UNCLAIMED],UNCLAIMED,000000,descente,4042065,
423,45.566899,-73.926755,Chemin Riviere Nord + Riviere Sud:  [UNCLAIMED],UNCLAIMED,000000,Chemin Riviere Nord + Riviere Sud,5346874,
424,45.565614,-73.939855,rivier noord-belle riviere-fresniere-riviere noord:  [UNCLAIMED],UNCLAIMED,000000,rivier noord-belle riviere-fresniere-riviere noord,4035564,
425,45.56262,-73.926766,Riviere Sud + Riviere Nord:  [UNCLAIMED],UNCLAIMED,000000,Riviere Sud + Riviere Nord,9650715,
426,45.566739,-73.926058,Boucle RS-RN:  [UNCLAIMED],UNCLAIMED,000000,Boucle RS-RN,9499992,
427,45.565607,-73.896184,Parc Chénier sprint:  [UNCLAIMED],UNCLAIMED,000000,Parc Chénier sprint,9331483,
428,45.555906,-73.866623,crèmerie / arthur-sauvé:  [UNCLAIMED],UNCLAIMED,000000,crèmerie / arthur-sauvé,9612410,
429,45.560268,-73.887036,Pont Arthur-Sauvé sud:  [UNCLAIMED],UNCLAIMED,000000,Pont Arthur-Sauvé sud,9612429,
430,45.565838,-73.854362,Ste - frenette/crèmerie:  [UNCLAIMED],UNCLAIMED,000000,Ste - frenette/crèmerie,9612404,
431,45.569347,-73.834748,Ste-Rose:  [UNCLAIMED],UNCLAIMED,000000,Ste-Rose,9395202,
432,45.57109,-73.821242,Dagenais W-E :  [UNCLAIMED],UNCLAIMED,000000,Dagenais W-E ,7666755,
433,45.579059,-73.799068,Dagenais E-W:  [UNCLAIMED],UNCLAIMED,000000,Dagenais E-W,7772269,
434,45.582604,-73.790364,Sprint Gaby N-S:  [UNCLAIMED],UNCLAIMED,000000,Sprint Gaby N-S,7709207,
435,45.565618,-73.802089,EDITH EST TENDU:  [UNCLAIMED],UNCLAIMED,000000,EDITH EST TENDU,9413423,
436,45.563358,-73.792786,Break Run 3/4:  [UNCLAIMED],UNCLAIMED,000000,Break Run 3/4,7928549,
437,45.561394,-73.83193,Montée champagne Dagenais / Des Bois:  [UNCLAIMED],UNCLAIMED,000000,Montée champagne Dagenais / Des Bois,10105451,
438,45.569154,-73.847035,Seguin1:  [UNCLAIMED],UNCLAIMED,000000,Seguin1,9395194,
439,45.567697,-73.841941,Cousteau:  [UNCLAIMED],UNCLAIMED,000000,Cousteau,9612396,
440,45.573188,-73.838381,43e:  [UNCLAIMED],UNCLAIMED,000000,43e,9395200,
441,45.57077,-73.783636,C-L Rush Hour Sprint:  [UNCLAIMED],UNCLAIMED,000000,C-L Rush Hour Sprint,9175079,
442,45.554786,-73.741102,Boul Souvenir Techno (Est):  [UNCLAIMED],UNCLAIMED,000000,Boul Souvenir Techno (Est),7750664,
443,45.552964,-73.733287,2020 Criterium:  [UNCLAIMED],UNCLAIMED,000000,2020 Criterium,7724134,
444,45.561407,-73.786936,industrial break run:  [UNCLAIMED],UNCLAIMED,000000,industrial break run,7928502,
445,45.55661386,-73.67276332,Pont Viau (Vers Laval):  [UNCLAIMED],UNCLAIMED,000000,Pont Viau (Vers Laval),1732601,
446,45.55799237,-73.6776668,Pont Viau (Vers Montréal):  [UNCLAIMED],UNCLAIMED,000000,Pont Viau (Vers Montréal),1732621,
447,45.550585,-73.699439,boul des prairies Crochet-Major:  [UNCLAIMED],UNCLAIMED,000000,boul des prairies Crochet-Major,4000614,
448,45.555885,-73.679942,boul des prairies Major-Crochet:  [UNCLAIMED],UNCLAIMED,000000,boul des prairies Major-Crochet,4000469,
449,45.552262,-73.676079,Somerville (St-Laurent-Pont Viau):  [UNCLAIMED],UNCLAIMED,000000,Somerville (St-Laurent-Pont Viau),5652273,
450,45.575217,-73.715299,Chemin de Fer - Saint Martin - Valois:  [UNCLAIMED],UNCLAIMED,000000,Chemin de Fer - Saint Martin - Valois,9640100,
451,45.56017,-73.709786,descente du moulin:  [UNCLAIMED],UNCLAIMED,000000,descente du moulin,4551569,
452,45.562085,-73.709821,chemin de Fer - de LaConcorde Saint Martin:  [UNCLAIMED],UNCLAIMED,000000,chemin de Fer - de LaConcorde Saint Martin,9640057,
453,45.570769,-73.672193,Montée Rue Notre Dame de Fatima:  [UNCLAIMED],UNCLAIMED,000000,Montée Rue Notre Dame de Fatima,8298601,
454,45.554851,-73.702197,Pont Train Cartier:  [UNCLAIMED],UNCLAIMED,000000,Pont Train Cartier,5209580,
455,45.553438,-73.661838,Pente Lajeunesse:  [UNCLAIMED],UNCLAIMED,000000,Pente Lajeunesse,4722309,
456,45.563624,-73.665142,Parc Gouin E-O:  [UNCLAIMED],UNCLAIMED,000000,Parc Gouin E-O,5021004,
457,45.5544421077,-73.6685618944,Berri - Henri-Bou -> Sauriol:  [UNCLAIMED],UNCLAIMED,000000,Berri - Henri-Bou -> Sauriol,3763409,
458,45.55374,-73.632503,Le Double sprint de Claude Robillard S-N:  [UNCLAIMED],UNCLAIMED,000000,Le Double sprint de Claude Robillard S-N,5136448,
459,45.55802,-73.646311,Christophe Colomb (Louvain/Henri) Nord:  [UNCLAIMED],UNCLAIMED,000000,Christophe Colomb (Louvain/Henri) Nord,4562995,
460,45.562651,-73.662593,Sprint du parc Olympia S-N:  [UNCLAIMED],UNCLAIMED,000000,Sprint du parc Olympia S-N,5136471,
461,45.561176,-73.657498,Mgr Henri Fleury S-N:  [UNCLAIMED],UNCLAIMED,000000,Mgr Henri Fleury S-N,5136466,
462,45.559427,-73.651888,C-C / Sauvé to Gouin:  [UNCLAIMED],UNCLAIMED,000000,C-C / Sauvé to Gouin,8334558,
463,45.555231,-73.637162,Le Double sprint de Claude Robillard N-S:  [UNCLAIMED],UNCLAIMED,000000,Le Double sprint de Claude Robillard N-S,5136337,
464,45.581032,-73.656102,Petite_Montée_Ile_Visitation:  [UNCLAIMED],UNCLAIMED,000000,Petite_Montée_Ile_Visitation,9735436,
465,45.564966,-73.555776,Viau Sprint:  [UNCLAIMED],UNCLAIMED,000000,Viau Sprint,4242361,
466,45.560963,-73.554566,Sherbrooke: Parc à Pie-IX:  [UNCLAIMED],UNCLAIMED,000000,Sherbrooke: Parc à Pie-IX,4262510,
467,45.5678201882,-73.5632450598,Maisonneuve Ring:  [UNCLAIMED],UNCLAIMED,000000,Maisonneuve Ring,2161836,
468,45.566414,-73.568187,Piste entre Parc -Jardin:  [UNCLAIMED],UNCLAIMED,000000,Piste entre Parc -Jardin,7665288,
469,45.5547823291,-73.5544163827,Pie-IX/Viau(Sherbrooke):  [UNCLAIMED],UNCLAIMED,000000,Pie-IX/Viau(Sherbrooke),3782452,
470,45.562113,-73.561356,Sprint:  [UNCLAIMED],UNCLAIMED,000000,Sprint,7409338,
471,45.560975,-73.573407,Rosemont_Pie-IX@Viau:  [Mike Sants],Mike Sants,1D6914,Rosemont_Pie-IX@Viau,4017906,
472,45.55909,-73.568498,Pie IX Up (Masson @ Rosemont):  [UNCLAIMED],UNCLAIMED,000000,Pie IX Up (Masson @ Rosemont),7037138,
473,45.5534914322,-73.5925204307,6 - 16 Avenue East:  [UNCLAIMED],UNCLAIMED,000000,6 - 16 Avenue East,2636201,
474,45.569043,-73.578939,Saint Zotique Sprint:  [UNCLAIMED],UNCLAIMED,000000,Saint Zotique Sprint,7289775,
475,45.552037,-73.498877,Geoffrion au Rodi:  [UNCLAIMED],UNCLAIMED,000000,Geoffrion au Rodi,4127290,
476,45.56526,-73.523431,Dickson - Barsalou:  [UNCLAIMED],UNCLAIMED,000000,Dickson - Barsalou,7457586,
477,45.580735,-73.511887,Des Futailles -> Dickson:  [UNCLAIMED],UNCLAIMED,000000,Des Futailles -> Dickson,7526050,
478,45.564968,-73.553568,Viau Sprint (SHerbrooke-Pierre de Courbertin):  [UNCLAIMED],UNCLAIMED,000000,Viau Sprint (SHerbrooke-Pierre de Courbertin),4101879,
479,45.563673,-73.549176,Sprint Marseille entre Viau et Dickson:  [UNCLAIMED],UNCLAIMED,000000,Sprint Marseille entre Viau et Dickson,7766384,
480,45.562232,-73.54626,Pierre de Coubertin Sprint:  [UNCLAIMED],UNCLAIMED,000000,Pierre de Coubertin Sprint,7503200,
481,45.5530497059,-73.5325500928,Pierre de Coubertin / Ste-Catherine:  [UNCLAIMED],UNCLAIMED,000000,Pierre de Coubertin / Ste-Catherine,3607454,
482,45.577534,-73.515574,Haig:  [UNCLAIMED],UNCLAIMED,000000,Haig,9428078,
483,45.5716429,-73.5365146,Sprint Hochelaga - PDC:  [UNCLAIMED],UNCLAIMED,000000,Sprint Hochelaga - PDC,1844311,
484,45.555527,-73.552295,Jackalope Crit 1 Lap:  [UNCLAIMED],UNCLAIMED,000000,Jackalope Crit 1 Lap,4692757,
485,45.562515,-73.49247,Piste 132 last 2k:  [UNCLAIMED],UNCLAIMED,000000,Piste 132 last 2k,2130368,
486,45.577913,-73.475963,Marie-Victorin sous la Vingt:  [UNCLAIMED],UNCLAIMED,000000,Marie-Victorin sous la Vingt,7814080,
487,45.561819,-73.46071,La route qui pue (est):  [UNCLAIMED],UNCLAIMED,000000,La route qui pue (est),7813707,
488,45.577789,-73.477493,Boucherville Smooth Sprint (West):  [UNCLAIMED],UNCLAIMED,000000,Boucherville Smooth Sprint (West),9511186,
489,45.570851,-73.448909,Viaduc 20/Mortagne (est):  [UNCLAIMED],UNCLAIMED,000000,Viaduc 20/Mortagne (est),7723129,
490,45.56756,-73.450622,La route qui pue (ouest):  [UNCLAIMED],UNCLAIMED,000000,La route qui pue (ouest),5011726,
491,45.574073,-73.447696,Viaduc 20/Mortagne (ouest):  [UNCLAIMED],UNCLAIMED,000000,Viaduc 20/Mortagne (ouest),7723115,
492,45.56944,-73.485787,Up Jean-Paul-Vincent:  [UNCLAIMED],UNCLAIMED,000000,Up Jean-Paul-Vincent,5742758,
493,45.56234,-73.476098,Down Jean-Paul-Vincent:  [UNCLAIMED],UNCLAIMED,000000,Down Jean-Paul-Vincent,5742772,
494,45.551128,-73.484046,Adoncour EST sprint:  [UNCLAIMED],UNCLAIMED,000000,Adoncour EST sprint,7622749,
495,45.555101,-73.432565,chemin du tremblay sprint:  [UNCLAIMED],UNCLAIMED,000000,chemin du tremblay sprint,7612591,
496,45.583283,-73.411523,Boucle du Bousquet:  [UNCLAIMED],UNCLAIMED,000000,Boucle du Bousquet,7355370,
497,45.581267,-73.408287,Boucle Futaie:  [UNCLAIMED],UNCLAIMED,000000,Boucle Futaie,7355359,
498,45.608898,-74.01663,descente villeneuve:  [UNCLAIMED],UNCLAIMED,000000,descente villeneuve,5111859,
499,45.601666,-74.022043,Côte des Corbeil nord/sud:  [UNCLAIMED],UNCLAIMED,000000,Côte des Corbeil nord/sud,4079916,
500,45.5861880631,-73.9891004563,CLM Côte des Corbeil:  [UNCLAIMED],UNCLAIMED,000000,CLM Côte des Corbeil,2580210,
501,45.601655,-73.950211,Montée Leblanc:  [UNCLAIMED],UNCLAIMED,000000,Montée Leblanc,7326870,
502,45.6030237023,-73.8776765484,Rue Dubois vers Sud/Ouest:  [UNCLAIMED],UNCLAIMED,000000,Rue Dubois vers Sud/Ouest,3879130,
503,45.5914655607,-73.8447212521,Auto-13/Grande-Côte vers Est:  [UNCLAIMED],UNCLAIMED,000000,Auto-13/Grande-Côte vers Est,3879150,
504,45.584243,-73.788642,CROSSTR S-N:  [UNCLAIMED],UNCLAIMED,000000,CROSSTR S-N,7666781,
505,45.617444,-73.840812,Chateauneuf-Boisbriand:  [UNCLAIMED],UNCLAIMED,000000,Chateauneuf-Boisbriand,9809923,
506,45.611149,-73.792267,STR CRIT//start-finish=117:  [UNCLAIMED],UNCLAIMED,000000,STR CRIT//start-finish=117,9813344,
507,45.611275,-73.792121,Tour De Laval LTC:  [UNCLAIMED],UNCLAIMED,000000,Tour De Laval LTC,9806748,
508,45.6017662492,-73.7893648166,Tour de Laval:  [UNCLAIMED],UNCLAIMED,000000,Tour de Laval,1947927,
509,45.5847501475,-73.7580956239,Laval crit loop:  [UNCLAIMED],UNCLAIMED,000000,Laval crit loop,1842753,
510,45.585121,-73.762436,Coupe Pantani Sprint:  [UNCLAIMED],UNCLAIMED,000000,Coupe Pantani Sprint,2312965,
511,45.603431,-73.742133,Piste Cyclable Sud Bellerose/St-Elzear:  [UNCLAIMED],UNCLAIMED,000000,Piste Cyclable Sud Bellerose/St-Elzear,7473153,
512,45.598372,-73.762134,Rang de l'équerre sud-nord:  [UNCLAIMED],UNCLAIMED,000000,Rang de l'équerre sud-nord,4392264,
513,45.592238,-73.759197,Dagenais O-E:  [UNCLAIMED],UNCLAIMED,000000,Dagenais O-E,5085041,
514,45.60019,-73.747524,Dagenais E-O:  [UNCLAIMED],UNCLAIMED,000000,Dagenais E-O,5085047,
515,45.596261,-73.734896,Pist cyclabe nord St-Elzéar Bellerose:  [UNCLAIMED],UNCLAIMED,000000,Pist cyclabe nord St-Elzéar Bellerose,9848086,
516,45.601998,-73.777889,Rossignol N-S:  [UNCLAIMED],UNCLAIMED,000000,Rossignol N-S,4747691,
517,45.602761,-73.784531,Sprint Roseval:  [UNCLAIMED],UNCLAIMED,000000,Sprint Roseval,7996505,
518,45.611252,-73.773832,rang de l'équerre Nord-sud:  [UNCLAIMED],UNCLAIMED,000000,rang de l'équerre Nord-sud,7477988,
519,45.58778776,-73.6912451,Montée Notre-Dame-de-Fatima:  [UNCLAIMED],UNCLAIMED,000000,Montée Notre-Dame-de-Fatima,2181364,
520,45.59224196,-73.65639846,Côte du barrage:  [UNCLAIMED],UNCLAIMED,000000,Côte du barrage,2366843,
521,45.597607,-73.653557,Bosse Rue Mondor à Rue Lesage:  [UNCLAIMED],UNCLAIMED,000000,Bosse Rue Mondor à Rue Lesage,7424904,
522,45.613094,-73.64509,College to Champagnat Sprint:  [UNCLAIMED],UNCLAIMED,000000,College to Champagnat Sprint,4539212,
523,45.5978675,-73.644254,Gouin&Piste_PieIX@StGertrude:  [UNCLAIMED],UNCLAIMED,000000,Gouin&Piste_PieIX@StGertrude,1966969,
524,45.602905,-73.642598,Montée Piste Pie-IX:  [UNCLAIMED],UNCLAIMED,000000,Montée Piste Pie-IX,7848766,
525,45.615809,-73.644393,Boucle est de Laval:  [UNCLAIMED],UNCLAIMED,000000,Boucle est de Laval,7740441,
526,45.608539,-73.6385101,Gouin&Piste_StGertrude@PieIX:  [UNCLAIMED],UNCLAIMED,000000,Gouin&Piste_StGertrude@PieIX,1966937,
527,45.603199,-73.658764,Piste Centre de la nature:  [UNCLAIMED],UNCLAIMED,000000,Piste Centre de la nature,4034654,
528,45.585003,-73.628909,Industriel - Hébert-Castille:  [UNCLAIMED],UNCLAIMED,000000,Industriel - Hébert-Castille,8549596,
529,45.61445,-73.657612,Montée Av. Seigneur Lussier:  [UNCLAIMED],UNCLAIMED,000000,Montée Av. Seigneur Lussier,7913338,
530,45.590573,-73.567427,butte Belanger:  [UNCLAIMED],UNCLAIMED,000000,butte Belanger,9133530,
531,45.601959,-73.597993,Boulevard Henri-Bourassa Est Climb:  [UNCLAIMED],UNCLAIMED,000000,Boulevard Henri-Bourassa Est Climb,4010571,
532,45.616756,-73.562462,Jarry O. (Ray Lawson/Blvd Louis H. Lafontaine):  [UNCLAIMED],UNCLAIMED,000000,Jarry O. (Ray Lawson/Blvd Louis H. Lafontaine),8496860,
533,45.607521,-73.570355,Passage sous l'autoroute 25:  [UNCLAIMED],UNCLAIMED,000000,Passage sous l'autoroute 25,8496867,
534,45.593639994,-73.5995769035,Rue Bourgjoly Climb:  [UNCLAIMED],UNCLAIMED,000000,Rue Bourgjoly Climb,2652393,
535,45.5878297,-73.5686381,Bélanger under 25 SR:  [UNCLAIMED],UNCLAIMED,000000,Bélanger under 25 SR,3431373,
536,45.592738,-73.510346,Promenade dan le Parc Bellerive:  [UNCLAIMED],UNCLAIMED,000000,Promenade dan le Parc Bellerive,1818143,
537,45.591493,-73.537852,Sprint Sherbrooke (place versailles/des Ormeaux):  [UNCLAIMED],UNCLAIMED,000000,Sprint Sherbrooke (place versailles/des Ormeaux),8327384,
538,45.6098522712,-73.5090479907,Promenade Parc Bellerive est-ouest:  [UNCLAIMED],UNCLAIMED,000000,Promenade Parc Bellerive est-ouest,2804369,
539,45.593032,-73.524302,Sprint Honoré/des Ormeaux:  [UNCLAIMED],UNCLAIMED,000000,Sprint Honoré/des Ormeaux,8293255,
540,45.612782,-73.518,Georges V Sprint:  [UNCLAIMED],UNCLAIMED,000000,Georges V Sprint,7536596,
541,45.615159,-73.513637,Boul Joseph Versailles:  [UNCLAIMED],UNCLAIMED,000000,Boul Joseph Versailles,7569084,
542,45.58521,-73.508173,Autoroute 25 - Ave Georges V:  [UNCLAIMED],UNCLAIMED,000000,Autoroute 25 - Ave Georges V,4271180,
543,45.602892,-73.537941,Roi-René North:  [UNCLAIMED],UNCLAIMED,000000,Roi-René North,7174991,
544,45.591394,-73.548184,VInnies NEXT KOM!:  [UNCLAIMED],UNCLAIMED,000000,VInnies NEXT KOM!,9754146,
545,45.611938,-73.526449,Crossing Contrecoeur:  [UNCLAIMED],UNCLAIMED,000000,Crossing Contrecoeur,7071071,
546,45.587966,-73.466307,Barre-toi! (sud):  [UNCLAIMED],UNCLAIMED,000000,Barre-toi! (sud),7814107,
547,45.591654,-73.461354,Club aviron boucherville nord.:  [UNCLAIMED],UNCLAIMED,000000,Club aviron boucherville nord.,8327588,
548,45.606418,-73.456632,Marie-Victorin Downtown Boucherville:  [UNCLAIMED],UNCLAIMED,000000,Marie-Victorin Downtown Boucherville,3993020,
549,45.585176,-73.462702,Barre-toi! (nord):  [UNCLAIMED],UNCLAIMED,000000,Barre-toi! (nord),7904726,
550,45.596348,-73.460338,Viaduc Club aviron Boucherville:  [UNCLAIMED],UNCLAIMED,000000,Viaduc Club aviron Boucherville,8190700,
551,45.593672,-73.455778,Fort St Louis:  [UNCLAIMED],UNCLAIMED,000000,Fort St Louis,3875789,
552,45.595117,-73.460973,Club aviron @ Rue Guérin :  [UNCLAIMED],UNCLAIMED,000000,Club aviron @ Rue Guérin ,9764137,
553,45.59475,-73.437613,CX Boucherville 2014:  [UNCLAIMED],UNCLAIMED,000000,CX Boucherville 2014,8277842,
554,45.594036,-73.437692,Vitesse Max:  [UNCLAIMED],UNCLAIMED,000000,Vitesse Max,5835530,
555,45.595293,-73.437227,CX-boucherville:  [UNCLAIMED],UNCLAIMED,000000,CX-boucherville,5826872,
556,45.597358,-73.412208,Chemin d'Anjou (est):  [UNCLAIMED],UNCLAIMED,000000,Chemin d'Anjou (est),8270341,
557,45.59764,-73.411149,Chemain d'ajou:  [UNCLAIMED],UNCLAIMED,000000,Chemain d'ajou,9423635,
558,45.585427,-73.413941,Boucle Chataigniers:  [UNCLAIMED],UNCLAIMED,000000,Boucle Chataigniers,7355377,
559,45.61003,-73.387144,Chemin d'Anjou Ouest:  [UNCLAIMED],UNCLAIMED,000000,Chemin d'Anjou Ouest,9751164,
560,45.587474,-73.40179,GG sprint:  [UNCLAIMED],UNCLAIMED,000000,GG sprint,7247695,
561,45.588104,-73.417196,Boucle de Normandie:  [UNCLAIMED],UNCLAIMED,000000,Boucle de Normandie,7355386,
562,45.586527,-73.409545,Boucle du boisé:  [UNCLAIMED],UNCLAIMED,000000,Boucle du boisé,8169101,
563,45.589392,-73.418737,4 boucles:  [UNCLAIMED],UNCLAIMED,000000,4 boucles,7355391,
564,45.639118,-73.989812,Côte des anges condos:  [UNCLAIMED],UNCLAIMED,000000,Côte des anges condos,9910821,
565,45.648891,-73.963479,Domaine_Vert_Stretch_Voie_Ferré:  [UNCLAIMED],UNCLAIMED,000000,Domaine_Vert_Stretch_Voie_Ferré,3984191,
566,45.6394,-73.861273,15 Overpass direction Est:  [UNCLAIMED],UNCLAIMED,000000,15 Overpass direction Est,7739083,
567,45.639755,-73.854829,Overpass 15 sur Chemin Cote Sud vers ouest:  [UNCLAIMED],UNCLAIMED,000000,Overpass 15 sur Chemin Cote Sud vers ouest,4066361,
568,45.636341,-73.869067,Grand-Allé le ti-bout vers sud:  [UNCLAIMED],UNCLAIMED,000000,Grand-Allé le ti-bout vers sud,4863490,
569,45.645145,-73.863485,Côte Boul. du Côteau:  [UNCLAIMED],UNCLAIMED,000000,Côte Boul. du Côteau,7845817,
570,45.643822,-73.859609,Côte St-Louis (Ste-Thérèse):  [UNCLAIMED],UNCLAIMED,000000,Côte St-Louis (Ste-Thérèse),4891693,
571,45.631927,-73.859408,Sprint Garneau concept!!:  [UNCLAIMED],UNCLAIMED,000000,Sprint Garneau concept!!,7532417,
572,45.643081,-73.878042,Rue du Grand Prix:  [UNCLAIMED],UNCLAIMED,000000,Rue du Grand Prix,9673033,
573,45.650071,-73.867029,DMI (CW):  [UNCLAIMED],UNCLAIMED,000000,DMI (CW),8389903,
574,45.6413,-73.867351,Rue Doris-Lussier:  [UNCLAIMED],UNCLAIMED,000000,Rue Doris-Lussier,9746343,
575,45.626864,-73.855406,St-Augustin40:  [UNCLAIMED],UNCLAIMED,000000,St-Augustin40,9299334,
576,45.63819,-73.826446,Montée Curée-Labelle entre Blainville et 640:  [UNCLAIMED],UNCLAIMED,000000,Montée Curée-Labelle entre Blainville et 640,4805817,
577,45.629362,-73.797503,Descente grande côte:  [UNCLAIMED],UNCLAIMED,000000,Descente grande côte,7478080,
578,45.647425,-73.840125,Cure-Labelle Piste Cyclable:  [UNCLAIMED],UNCLAIMED,000000,Cure-Labelle Piste Cyclable,7931285,
579,45.630951,-73.813234,Labelle : Boutiller - Grande côte:  [UNCLAIMED],UNCLAIMED,000000,Labelle : Boutiller - Grande côte,7479001,
580,45.623148,-73.803616,grande côte : Labelle - montée sanche:  [UNCLAIMED],UNCLAIMED,000000,grande côte : Labelle - montée sanche,7478190,
581,45.619843,-73.812751,Montée Sanche : Grande côte - des entreprises:  [UNCLAIMED],UNCLAIMED,000000,Montée Sanche : Grande côte - des entreprises,7478290,
582,45.638279,-73.789848,Rose Alma Climb:  [UNCLAIMED],UNCLAIMED,000000,Rose Alma Climb,7039888,
583,45.634143,-73.805469,Golfridge Crit:  [UNCLAIMED],UNCLAIMED,000000,Golfridge Crit,7797960,
584,45.651025,-73.802618,Trail 640 vers Est:  [UNCLAIMED],UNCLAIMED,000000,Trail 640 vers Est,3979107,
585,45.621035,-73.84702,Défi Soccer @ Horaire:  [UNCLAIMED],UNCLAIMED,000000,Défi Soccer @ Horaire,8450924,
586,45.627299,-73.763604,Piste cyclable laval nord(petit bout):  [UNCLAIMED],UNCLAIMED,000000,Piste cyclable laval nord(petit bout),3903849,
587,45.633784,-73.765278,Piste cyclable - Av. des terraces vers Boul. Ste-Rose:  [UNCLAIMED],UNCLAIMED,000000,Piste cyclable - Av. des terraces vers Boul. Ste-Rose,5883643,
588,45.642821,-73.756748,Terrasses - Des Laurentides à Route Verte:  [UNCLAIMED],UNCLAIMED,000000,Terrasses - Des Laurentides à Route Verte,8996021,
589,45.650041,-73.786979,Roland-Durand (est de Lesage) Sprint:  [UNCLAIMED],UNCLAIMED,000000,Roland-Durand (est de Lesage) Sprint,4129370,
590,45.6511883333,-73.7761116667,Boul. Roland-Durand:  [UNCLAIMED],UNCLAIMED,000000,Boul. Roland-Durand,2598176,
591,45.621049,-73.774552,Button Olier-Payette:  [UNCLAIMED],UNCLAIMED,000000,Button Olier-Payette,4478320,
592,45.641389,-73.736577,Saint-Saëns:  [UNCLAIMED],UNCLAIMED,000000,Saint-Saëns,5032278,
593,45.629027,-73.772712,Montée Terasses:  [UNCLAIMED],UNCLAIMED,000000,Montée Terasses,8277299,
594,45.640098,-73.735022,sprint rue Perron:  [UNCLAIMED],UNCLAIMED,000000,sprint rue Perron,6995209,
595,45.618166,-73.756557,Chatillon_a_DesLaurentides:  [UNCLAIMED],UNCLAIMED,000000,Chatillon_a_DesLaurentides,9980610,
596,45.620701,-73.72446,LausanneLoop:  [UNCLAIMED],UNCLAIMED,000000,LausanneLoop,10035646,
597,45.6223581545,-73.7211481109,Park Loop:  [UNCLAIMED],UNCLAIMED,000000,Park Loop,3712876,
598,45.628625,-73.637573,Sprint between berge and bridge:  [UNCLAIMED],UNCLAIMED,000000,Sprint between berge and bridge,4943335,
599,45.622357,-73.650965,Montée du pénitencier (jusqu'à la porte):  [UNCLAIMED],UNCLAIMED,000000,Montée du pénitencier (jusqu'à la porte),5430731,
600,45.631704,-73.61354,Pont A25 Montréal vers Laval:  [UNCLAIMED],UNCLAIMED,000000,Pont A25 Montréal vers Laval,7050451,
601,45.641951,-73.622499,Pont A25 Laval vers Montréal:  [UNCLAIMED],UNCLAIMED,000000,Pont A25 Laval vers Montréal,4106822,
602,45.641639,-73.621311,Petite montée pont de la 25:  [UNCLAIMED],UNCLAIMED,000000,Petite montée pont de la 25,7693989,
603,45.6416388787,-73.6207536142,Pointe-est Laval via Masson:  [UNCLAIMED],UNCLAIMED,000000,Pointe-est Laval via Masson,2183559,
604,45.62544,-73.64028,Montée Masson - Lévesque@SortieAut440:  [UNCLAIMED],UNCLAIMED,000000,Montée Masson - Lévesque@SortieAut440,8289344,
605,45.641261,-73.64222,Boucle de l'A25:  [UNCLAIMED],UNCLAIMED,000000,Boucle de l'A25,4594491,
606,45.631433,-73.634999,boucle pointe de l:  [UNCLAIMED],UNCLAIMED,000000,boucle pointe de l,5754375,
607,45.631433,-73.634999,boucle pointe de l'est:  [UNCLAIMED],UNCLAIMED,000000,boucle pointe de l'est,5778561,
608,45.635748,-73.566096,Henri-Bourassa (Rudolphe to Ray Lawson):  [UNCLAIMED],UNCLAIMED,000000,Henri-Bourassa (Rudolphe to Ray Lawson),7904501,
609,45.623015,-73.603927,Voie service A25-MauriceDuplessis à Perras:  [UNCLAIMED],UNCLAIMED,000000,Voie service A25-MauriceDuplessis à Perras,7220365,
610,45.629387,-73.611915,Perras à M. Duplessis - voix de service:  [UNCLAIMED],UNCLAIMED,000000,Perras à M. Duplessis - voix de service,7895333,
611,45.6369507965,-73.6055990495,Montée Fernand Gauthier:  [UNCLAIMED],UNCLAIMED,000000,Montée Fernand Gauthier,1623219,
612,45.637951,-73.605143,15e Ave MTL-Nord:  [UNCLAIMED],UNCLAIMED,000000,15e Ave MTL-Nord,9907982,
613,45.623554,-73.603169,4e Ave. de MDuplessis à Perras (N):  [UNCLAIMED],UNCLAIMED,000000,4e Ave. de MDuplessis à Perras (N),9949677,
614,45.630312,-73.61044,4e Ave. de MDuplessis à Perras (S):  [UNCLAIMED],UNCLAIMED,000000,4e Ave. de MDuplessis à Perras (S),9949693,
615,45.61824,-73.526689,TDI Quarry:  [UNCLAIMED],UNCLAIMED,000000,TDI Quarry,7337531,
616,45.622027,-73.536687,Carrière Lafarge climb:  [UNCLAIMED],UNCLAIMED,000000,Carrière Lafarge climb,7338811,
617,45.62877,-73.501966,Victoria / Durocher vomit sprint:  [UNCLAIMED],UNCLAIMED,000000,Victoria / Durocher vomit sprint,5812771,
618,45.6290733581,-73.5127385426,Victoria retour:  [UNCLAIMED],UNCLAIMED,000000,Victoria retour,2804351,
619,45.6280276319,-73.5027723759,Rue victoria:  [UNCLAIMED],UNCLAIMED,000000,Rue victoria,2779529,
620,45.643767,-73.443827,MarieVictorin Ouest@Agenson:  [UNCLAIMED],UNCLAIMED,000000,MarieVictorin Ouest@Agenson,5012940,
621,45.63788,-73.447527,Sprint Argenson-Chemin de la Côte:  [UNCLAIMED],UNCLAIMED,000000,Sprint Argenson-Chemin de la Côte,9760674,
622,45.618476,-73.465684,Tour Ile Grosbois:  [UNCLAIMED],UNCLAIMED,000000,Tour Ile Grosbois,4588232,
623,45.630611,-73.438263,Rue de la Seine Climb:  [UNCLAIMED],UNCLAIMED,000000,Rue de la Seine Climb,5350097,
624,45.6322858491,-73.4232556416,De La Rivière aux pins Boucherville:  [UNCLAIMED],UNCLAIMED,000000,De La Rivière aux pins Boucherville,2272522,
625,45.628,-73.385586,Jean-Coutu Nord:  [UNCLAIMED],UNCLAIMED,000000,Jean-Coutu Nord,9288607,
626,45.662973,-73.990887,Rue Saint-Jean Mirabel:  [UNCLAIMED],UNCLAIMED,000000,Rue Saint-Jean Mirabel,9434765,
627,45.662676,-73.980424,Vers le golf Diamant:  [UNCLAIMED],UNCLAIMED,000000,Vers le golf Diamant,9910809,
628,45.662953,-73.924742,Piste 12 MTB vers Rang Ste-Henriette:  [UNCLAIMED],UNCLAIMED,000000,Piste 12 MTB vers Rang Ste-Henriette,7849045,
629,45.662369,-73.920749,XC 1:  [UNCLAIMED],UNCLAIMED,000000,XC 1,5025814,
630,45.655327,-73.923591,Snake Pit court:  [UNCLAIMED],UNCLAIMED,000000,Snake Pit court,7496450,
631,45.6678326841,-73.9236663468,Ch.Notre-Dame to Rue Charles:  [UNCLAIMED],UNCLAIMED,000000,Ch.Notre-Dame to Rue Charles,1747575,
632,45.655526,-73.936245,Test1:  [UNCLAIMED],UNCLAIMED,000000,Test1,7841828,
633,45.655944,-73.93523,Piste 12 MTB vers l'acceuil:  [UNCLAIMED],UNCLAIMED,000000,Piste 12 MTB vers l'acceuil,7849022,
634,45.653922,-73.924654,Piste 14:  [UNCLAIMED],UNCLAIMED,000000,Piste 14,9612662,
635,45.675134,-73.926657,Sprint Outlets:  [UNCLAIMED],UNCLAIMED,000000,Sprint Outlets,9425177,
636,45.678582,-73.909852,Sortie 28:  [UNCLAIMED],UNCLAIMED,000000,Sortie 28,9910804,
637,45.660406,-73.90856,Boucle #4:  [UNCLAIMED],UNCLAIMED,000000,Boucle #4,9910360,
638,45.6669155136,-73.8553263713,Parc Linéaire Des Basses Laurentides Climb:  [UNCLAIMED],UNCLAIMED,000000,Parc Linéaire Des Basses Laurentides Climb,2561829,
639,45.675803,-73.859671,Céloron - KM Etalon - Nord:  [UNCLAIMED],UNCLAIMED,000000,Céloron - KM Etalon - Nord,7285150,
640,45.674851,-73.847845,Omer Deserres morning sprint:  [UNCLAIMED],UNCLAIMED,000000,Omer Deserres morning sprint,4783203,
641,45.682999,-73.869308,Céloron - KM Étalon - Sud:  [UNCLAIMED],UNCLAIMED,000000,Céloron - KM Étalon - Sud,4876134,
642,45.66808,-73.85648,Omer Deserres evening sprint:  [UNCLAIMED],UNCLAIMED,000000,Omer Deserres evening sprint,5543410,
643,45.655887,-73.893224,Piste R3 Difficile:  [UNCLAIMED],UNCLAIMED,000000,Piste R3 Difficile,8002070,
644,45.6672676373,-73.8558006193,Rue Gaston Dumoulin Climb:  [UNCLAIMED],UNCLAIMED,000000,Rue Gaston Dumoulin Climb,1570371,
645,45.671673,-73.883186,sprint final:  [UNCLAIMED],UNCLAIMED,000000,sprint final,7719777,
646,45.659089,-73.870295,Boulevard des Mille-Îles:  [UNCLAIMED],UNCLAIMED,000000,Boulevard des Mille-Îles,7788351,
647,45.667069,-73.870371,Sprint Seigneurie:  [UNCLAIMED],UNCLAIMED,000000,Sprint Seigneurie,7828797,
648,45.65170549,-73.8461505,Le petit bout:  [UNCLAIMED],UNCLAIMED,000000,Le petit bout,2642634,
649,45.661395,-73.831657,Rochefort vers Fontainebleau:  [UNCLAIMED],UNCLAIMED,000000,Rochefort vers Fontainebleau,8074357,
650,45.670081,-73.806977,Saint François vers Est:  [UNCLAIMED],UNCLAIMED,000000,Saint François vers Est,5216238,
651,45.652971,-73.816044,Renaissance Côte Seulement:  [UNCLAIMED],UNCLAIMED,000000,Renaissance Côte Seulement,3984245,
652,45.664554,-73.826377,FontaineBleau (horaire):  [UNCLAIMED],UNCLAIMED,000000,FontaineBleau (horaire),7611498,
653,45.660073,-73.830319,Renaissance - Gatineau à Annecy:  [UNCLAIMED],UNCLAIMED,000000,Renaissance - Gatineau à Annecy,7668315,
654,45.679218,-73.795225,Saint François vers l'ouest:  [UNCLAIMED],UNCLAIMED,000000,Saint François vers l'ouest,7275935,
655,45.651579,-73.803686,Côte Renaissance "Official":  [UNCLAIMED],UNCLAIMED,000000,Côte Renaissance "Official",7115546,
656,45.6629066,-73.84391414,Retour par Fontainebleau:  [UNCLAIMED],UNCLAIMED,000000,Retour par Fontainebleau,2685036,
657,45.673252,-73.843173,Côte St-Louis - Short Stretch:  [UNCLAIMED],UNCLAIMED,000000,Côte St-Louis - Short Stretch,7531828,
658,45.660436,-73.752315,Pont David - Dir. Nord:  [UNCLAIMED],UNCLAIMED,000000,Pont David - Dir. Nord,7733572,
659,45.672905,-73.750905,25ième to Urbanova:  [UNCLAIMED],UNCLAIMED,000000,25ième to Urbanova,8042689,
660,45.659533,-73.74396,Boul. Mille-Iles sprint:  [UNCLAIMED],UNCLAIMED,000000,Boul. Mille-Iles sprint,5279973,
661,45.659759,-73.766913,52e to 56e Bump:  [UNCLAIMED],UNCLAIMED,000000,52e to 56e Bump,8234243,
662,45.661565,-73.742312,Boul. Mille-Iles 500m:  [UNCLAIMED],UNCLAIMED,000000,Boul. Mille-Iles 500m,5279491,
663,45.6649134122,-73.7605262082,Gagnon:  [UNCLAIMED],UNCLAIMED,000000,Gagnon,1559844,
664,45.669587,-73.767309,Côte Montée Gagnon:  [UNCLAIMED],UNCLAIMED,000000,Côte Montée Gagnon,7204990,
665,45.655929,-73.771463,700 Meter Uphill Sprint:  [UNCLAIMED],UNCLAIMED,000000,700 Meter Uphill Sprint,9132894,
666,45.6790819,-73.7815755,Gagnon Downhill:  [UNCLAIMED],UNCLAIMED,000000,Gagnon Downhill,1813412,
667,45.662831,-73.781409,Descente Boulevard de Gaulle court section:  [UNCLAIMED],UNCLAIMED,000000,Descente Boulevard de Gaulle court section,5719794,
668,45.6815960817,-73.6912328471,Boul. Ste-Marie (montée):  [UNCLAIMED],UNCLAIMED,000000,Boul. Ste-Marie (montée),1423111,
669,45.6667697523,-73.690501526,Montée - Boul. Ste-Marie:  [UNCLAIMED],UNCLAIMED,000000,Montée - Boul. Ste-Marie,2445297,
670,45.6816949882,-73.6918789242,Boul. des Milles-Îles - Club de Golf:  [UNCLAIMED],UNCLAIMED,000000,Boul. des Milles-Îles - Club de Golf,1384672,
671,45.6521305908,-73.6851825379,sainte-marie en descendant:  [UNCLAIMED],UNCLAIMED,000000,sainte-marie en descendant,2920233,
672,45.678439,-73.72499,Boul. Milles-Îles (Papineau à Ste-Marie) Part 2:  [UNCLAIMED],UNCLAIMED,000000,Boul. Milles-Îles (Papineau à Ste-Marie) Part 2,4972136,
673,45.678745,-73.691125,Parc to power lines:  [UNCLAIMED],UNCLAIMED,000000,Parc to power lines,8268649,
674,45.684344,-73.715976,Butte Camping 5 étoiles Est:  [UNCLAIMED],UNCLAIMED,000000,Butte Camping 5 étoiles Est,9312044,
675,45.653048,-73.685586,Power lines to parc:  [UNCLAIMED],UNCLAIMED,000000,Power lines to parc,8268677,
676,45.677836,-73.70865,montée du golf:  [UNCLAIMED],UNCLAIMED,000000,montée du golf,7818723,
677,45.68265,-73.659571,Bump to Hydro:  [UNCLAIMED],UNCLAIMED,000000,Bump to Hydro,8236424,
678,45.672075,-73.628605,Bute montée masson:  [UNCLAIMED],UNCLAIMED,000000,Bute montée masson,4871307,
679,45.675946,-73.627285,Monté masson jusqu'à la lumière:  [UNCLAIMED],UNCLAIMED,000000,Monté masson jusqu'à la lumière,10040406,
680,45.671763,-73.577662,sprint course Laval:  [UNCLAIMED],UNCLAIMED,000000,sprint course Laval,7241011,
681,45.673614,-73.579695,boucle route laval:  [UNCLAIMED],UNCLAIMED,000000,boucle route laval,4375382,
682,45.653502,-73.569162,55e Av Descent (4e Rue - Gouin E):  [UNCLAIMED],UNCLAIMED,000000,55e Av Descent (4e Rue - Gouin E),7346210,
683,45.6682386299,-73.548417529,Saint-Jean Bapiste - Uphill:  [UNCLAIMED],UNCLAIMED,000000,Saint-Jean Bapiste - Uphill,1374658,
684,45.66813,-73.548342,Saint-Jean-Baptiste (Perras-Chemin de fer):  [UNCLAIMED],UNCLAIMED,000000,Saint-Jean-Baptiste (Perras-Chemin de fer),7898997,
685,45.6719495635,-73.521681568,Maurice-Duplessis - Flatlands - Westbound:  [UNCLAIMED],UNCLAIMED,000000,Maurice-Duplessis - Flatlands - Westbound,1374652,
686,45.652735139,-73.5364848387,Saint-Jean Baptiste - Downhill:  [UNCLAIMED],UNCLAIMED,000000,Saint-Jean Baptiste - Downhill,1374664,
687,45.669263,-73.538514,La petite butte de l'avenue Armand-Chaput:  [UNCLAIMED],UNCLAIMED,000000,La petite butte de l'avenue Armand-Chaput,9136443,
688,45.661607,-73.537933,Maurice-Duplessis direction Est:  [UNCLAIMED],UNCLAIMED,000000,Maurice-Duplessis direction Est,4351096,
689,45.683684,-73.504757,Hawthorn-Dale Cemetery:  [UNCLAIMED],UNCLAIMED,000000,Hawthorn-Dale Cemetery,4588091,
690,45.673205,-73.521669,Sentier Duplessis|Gouin [Direction nord]:  [UNCLAIMED],UNCLAIMED,000000,Sentier Duplessis|Gouin [Direction nord],4457169,
691,45.652381,-73.536473,H-B Perras square:  [UNCLAIMED],UNCLAIMED,000000,H-B Perras square,4258643,
692,45.67453,-73.437987,C dans le parc (nord):  [UNCLAIMED],UNCLAIMED,000000,C dans le parc (nord),8585693,
693,45.666601,-73.438469,Slalom dans le fleuve:  [UNCLAIMED],UNCLAIMED,000000,Slalom dans le fleuve,8581822,
694,45.659746,-73.426506,Sprint Radar Ecole La Source :-):  [UNCLAIMED],UNCLAIMED,000000,Sprint Radar Ecole La Source :-),7390017,
695,45.655208,-73.419669,Chemin du Pays Brûlé:  [UNCLAIMED],UNCLAIMED,000000,Chemin du Pays Brûlé,8284146,
696,45.673676,-73.390341,Jean Paul Choquet:  [UNCLAIMED],UNCLAIMED,000000,Jean Paul Choquet,5012871,
697,45.661119,-73.389694,Montée Du Lac:  [UNCLAIMED],UNCLAIMED,000000,Montée Du Lac,5012880,
698,45.671752,-73.404797,Petit Bois 2:  [UNCLAIMED],UNCLAIMED,000000,Petit Bois 2,5012906,
699,45.674688,-73.400027,Chemin du Petit Bois:  [UNCLAIMED],UNCLAIMED,000000,Chemin du Petit Bois,3992500,
700,45.682648,-73.43515,Tour de Varennes:  [UNCLAIMED],UNCLAIMED,000000,Tour de Varennes,5343880,
701,45.681008,-73.418148,Rue Quévillon Climb:  [UNCLAIMED],UNCLAIMED,000000,Rue Quévillon Climb,4735441,
702,45.681361,-73.432974,Rue Dalpé Climb:  [UNCLAIMED],UNCLAIMED,000000,Rue Dalpé Climb,4735440,
703,45.709814,-73.913123,St-Charles à Victor - fossé au ruisseau:  [UNCLAIMED],UNCLAIMED,000000,St-Charles à Victor - fossé au ruisseau,7753133,
704,45.712267,-73.916296,Victor à St-Charles - fossé au ruisseau:  [UNCLAIMED],UNCLAIMED,000000,Victor à St-Charles - fossé au ruisseau,9840981,
705,45.689036,-73.920857,bitume neuf caché:  [UNCLAIMED],UNCLAIMED,000000,bitume neuf caché,7286705,
706,45.688922,-73.923985,Carré St-Janvier:  [UNCLAIMED],UNCLAIMED,000000,Carré St-Janvier,9662027,
707,45.7032962174,-73.9238318787,Following Robin's Trail:  [UNCLAIMED],UNCLAIMED,000000,Following Robin's Trail,1685875,
708,45.690588,-73.889686,Rue des Guinées Climb:  [UNCLAIMED],UNCLAIMED,000000,Rue des Guinées Climb,4148146,
709,45.699213,-73.898923,Celeron South 15:  [UNCLAIMED],UNCLAIMED,000000,Celeron South 15,7294234,
710,45.690435,-73.885003,Celeron North 14:  [UNCLAIMED],UNCLAIMED,000000,Celeron North 14,7294226,
711,45.714182,-73.878243,Blainville Test Track:  [UNCLAIMED],UNCLAIMED,000000,Blainville Test Track,4142383,
712,45.698592,-73.900668,Blainville/St-Jérome/Blainville:  [UNCLAIMED],UNCLAIMED,000000,Blainville/St-Jérome/Blainville,5467700,
713,45.7056974899,-73.6863337085,plaisance :  [UNCLAIMED],UNCLAIMED,000000,plaisance ,2909473,
714,45.695461,-73.684085,Plaisance de 344 à Des Seigneurs:  [UNCLAIMED],UNCLAIMED,000000,Plaisance de 344 à Des Seigneurs,8142627,
715,45.709727,-73.717204,entrepot loblaws vers le sud:  [UNCLAIMED],UNCLAIMED,000000,entrepot loblaws vers le sud,7258726,
716,45.706614,-73.686294,Tronçon Expert Grosse Côte:  [UNCLAIMED],UNCLAIMED,000000,Tronçon Expert Grosse Côte,8029287,
717,45.710114,-73.716709,Trans-Terrebonne (golf/Passerelle):  [UNCLAIMED],UNCLAIMED,000000,Trans-Terrebonne (golf/Passerelle),4504778,
718,45.711681,-73.680571,Trans-Terrebonne (Plaisance/Passerelle vers Ouest):  [UNCLAIMED],UNCLAIMED,000000,Trans-Terrebonne (Plaisance/Passerelle vers Ouest),4511744,
719,45.712068,-73.697649,Trans-Terrebonne (Passerelle/Plaisance):  [UNCLAIMED],UNCLAIMED,000000,Trans-Terrebonne (Passerelle/Plaisance),4504810,
720,45.706116,-73.700708,Boisé loop:  [UNCLAIMED],UNCLAIMED,000000,Boisé loop,7764597,
721,45.70661,-73.711449,Xc golf le Versant:  [UNCLAIMED],UNCLAIMED,000000,Xc golf le Versant,4412478,
722,45.710378,-73.711249,Back home cut over trail terrebonne:  [UNCLAIMED],UNCLAIMED,000000,Back home cut over trail terrebonne,9654738,
723,45.699024,-73.646272,Saint-Sacrement Sprint:  [UNCLAIMED],UNCLAIMED,000000,Saint-Sacrement Sprint,4256821,
724,45.690245,-73.630002,Vieux-Pont Sud:  [UNCLAIMED],UNCLAIMED,000000,Vieux-Pont Sud,8998240,
725,45.7187952194,-73.6228286382,col san antonio:  [UNCLAIMED],UNCLAIMED,000000,col san antonio,2909831,
726,45.710731,-73.663206,Lap 2014:  [UNCLAIMED],UNCLAIMED,000000,Lap 2014,7491052,
727,45.710191,-73.668555,Côte Boulevard des Seigneurs:  [UNCLAIMED],UNCLAIMED,000000,Côte Boulevard des Seigneurs,3798307,
728,45.709058,-73.646256,GUZZO au complet:  [UNCLAIMED],UNCLAIMED,000000,GUZZO au complet,7155340,
729,45.711053,-73.626962,Masson's Big Bump:  [UNCLAIMED],UNCLAIMED,000000,Masson's Big Bump,5595117,
730,45.7083809562,-73.6679842137,Des Seigneurs:  [UNCLAIMED],UNCLAIMED,000000,Des Seigneurs,1656810,
731,45.716073,-73.624396,Côtelette:  [UNCLAIMED],UNCLAIMED,000000,Côtelette,7313014,
732,45.706804,-73.615005,Grande Allée Giggity Giggity :  [UNCLAIMED],UNCLAIMED,000000,Grande Allée Giggity Giggity ,5595074,
733,45.701447,-73.565627,Ch St-Charles - Bibliothèque à de l'Église:  [UNCLAIMED],UNCLAIMED,000000,Ch St-Charles - Bibliothèque à de l'Église,7548339,
734,45.695293,-73.611715,St-Charles/Montée Dumais:  [UNCLAIMED],UNCLAIMED,000000,St-Charles/Montée Dumais,9038049,
735,45.698621,-73.579174,Ch St-Charles - Dumais à Desjardins:  [UNCLAIMED],UNCLAIMED,000000,Ch St-Charles - Dumais à Desjardins,7548246,
736,45.717327,-73.576468,Montée Dumais overpass 40 dir sud:  [UNCLAIMED],UNCLAIMED,000000,Montée Dumais overpass 40 dir sud,7554889,
737,45.716003,-73.58581,640/Charles-Aubert:  [UNCLAIMED],UNCLAIMED,000000,640/Charles-Aubert,7097080,
738,45.710782,-73.576913,Montée Dumais overpass 40 dir nord:  [UNCLAIMED],UNCLAIMED,000000,Montée Dumais overpass 40 dir nord,7554879,
739,45.695153,-73.610807,Charles-Aubert Nord:  [UNCLAIMED],UNCLAIMED,000000,Charles-Aubert Nord,9729013,
740,45.692045,-73.60737,Ch St-Charles - Desjardins à Dumais:  [UNCLAIMED],UNCLAIMED,000000,Ch St-Charles - Desjardins à Dumais,7548256,
741,45.713311,-73.605784,Mtb Boucle Horaire:  [UNCLAIMED],UNCLAIMED,000000,Mtb Boucle Horaire,8765637,
742,45.716964,-73.603727,Mtb Trail Sud:  [UNCLAIMED],UNCLAIMED,000000,Mtb Trail Sud,8765651,
743,45.6897905655,-73.5424103122,lévesque est sprint:  [UNCLAIMED],UNCLAIMED,000000,lévesque est sprint,3867655,
744,45.689640045,-73.54259491,Laval Sprint Point:  [UNCLAIMED],UNCLAIMED,000000,Laval Sprint Point,1354952,
745,45.708542,-73.510931,344 est overpass de la 40.:  [UNCLAIMED],UNCLAIMED,000000,344 est overpass de la 40.,5162749,
746,45.70166,-73.553604,Ch St-Charles de l'Église à Kennedy:  [UNCLAIMED],UNCLAIMED,000000,Ch St-Charles de l'Église à Kennedy,7554788,
747,45.705912,-73.523638,Ch St-Charles - Kennedy à de l'Église:  [UNCLAIMED],UNCLAIMED,000000,Ch St-Charles - Kennedy à de l'Église,7548232,
748,45.71202,-73.504841,344 ouest overpass de la 40.:  [UNCLAIMED],UNCLAIMED,000000,344 ouest overpass de la 40.,7550064,
749,45.694935,-73.533851,Pointe Est Finish Sprint:  [UNCLAIMED],UNCLAIMED,000000,Pointe Est Finish Sprint,9761176,
750,45.705862,-73.483813,Pont le Gardeur (2e pont):  [UNCLAIMED],UNCLAIMED,000000,Pont le Gardeur (2e pont),5420995,
751,45.6984657515,-73.4844300896,Pont Du Bout De L'Ile. :  [UNCLAIMED],UNCLAIMED,000000,Pont Du Bout De L'Ile. ,2090477,
752,45.7133316435,-73.4768403601,pont le gardeur direction ouest:  [UNCLAIMED],UNCLAIMED,000000,pont le gardeur direction ouest,2917433,
753,45.70167,-73.4833,Bourdon Island Bridge:  [UNCLAIMED],UNCLAIMED,000000,Bourdon Island Bridge,2369724,
754,45.714935,-73.475765,Boul L'Assomption Climb:  [UNCLAIMED],UNCLAIMED,000000,Boul L'Assomption Climb,5786514,
755,45.700791,-73.483259,Parc Bout-de-l'île - Parc Pierre-Payet dir Ouest:  [UNCLAIMED],UNCLAIMED,000000,Parc Bout-de-l'île - Parc Pierre-Payet dir Ouest,5291643,
756,45.688853,-73.489347,81ieme - pont Legardeur:  [UNCLAIMED],UNCLAIMED,000000,81ieme - pont Legardeur,4525036,
757,45.7111250656,-73.3963372093,Chemin de la Baronie:  [UNCLAIMED],UNCLAIMED,000000,Chemin de la Baronie,2312531,
758,45.736255,-73.967831,117 StMarguerite/Boise:  [UNCLAIMED],UNCLAIMED,000000,117 StMarguerite/Boise,7554481,
759,45.729993,-73.97521,Sprint a J-P:  [UNCLAIMED],UNCLAIMED,000000,Sprint a J-P,4782022,
760,45.7226824947,-73.9328361768,St-Pierre / Ste-Marguerite:  [UNCLAIMED],UNCLAIMED,000000,St-Pierre / Ste-Marguerite,1750634,
761,45.741907,-73.958537,ste marguerite - cote st-pierre:  [UNCLAIMED],UNCLAIMED,000000,ste marguerite - cote st-pierre,7719789,
762,45.729645,-73.942152,BumpySmooth:  [UNCLAIMED],UNCLAIMED,000000,BumpySmooth,9754801,
763,45.7418953144,-73.9585479983,strech Parc Lineaire:  [UNCLAIMED],UNCLAIMED,000000,strech Parc Lineaire,1251005,
764,45.742114,-73.958829,Bumpy South:  [UNCLAIMED],UNCLAIMED,000000,Bumpy South,9754795,
765,45.721453,-73.887532,Recupération:  [UNCLAIMED],UNCLAIMED,000000,Recupération,5740155,
766,45.730687,-73.821876,bosse Mtée Gagnon sud:  [UNCLAIMED],UNCLAIMED,000000,bosse Mtée Gagnon sud,4716687,
767,45.735636,-73.741296,Martin de Valiquette à Ste-Claire:  [UNCLAIMED],UNCLAIMED,000000,Martin de Valiquette à Ste-Claire,9422731,
768,45.727123,-73.706856,Autoroute de la Rive-Nord Climb:  [UNCLAIMED],UNCLAIMED,000000,Autoroute de la Rive-Nord Climb,6570485,
769,45.729996,-73.697524,Ch. Comtois - Martin:  [UNCLAIMED],UNCLAIMED,000000,Ch. Comtois - Martin,4944930,
770,45.730835,-73.676139,Boul. des Entreprises:  [UNCLAIMED],UNCLAIMED,000000,Boul. des Entreprises,5436534,
771,45.735093,-73.715111,Trans Terrebonne - chemin Martin à chemin Comtois:  [UNCLAIMED],UNCLAIMED,000000,Trans Terrebonne - chemin Martin à chemin Comtois,9966583,
772,45.7278102078,-73.6194399185,cote esplanade:  [UNCLAIMED],UNCLAIMED,000000,cote esplanade,2902187,
773,45.725529,-73.640779,Piste Cyclable Esplande/Boul Mascouche:  [UNCLAIMED],UNCLAIMED,000000,Piste Cyclable Esplande/Boul Mascouche,7168968,
774,45.74574,-73.623323,Montée Boul mascouche:  [UNCLAIMED],UNCLAIMED,000000,Montée Boul mascouche,7232794,
775,45.745958,-73.629547,CLM piste cyclable:  [UNCLAIMED],UNCLAIMED,000000,CLM piste cyclable,3915051,
776,45.726308,-73.656766,CLM L'esplanade:  [UNCLAIMED],UNCLAIMED,000000,CLM L'esplanade,4986771,
777,45.745774,-73.669708,CLM Cemin Pincourt:  [UNCLAIMED],UNCLAIMED,000000,CLM Cemin Pincourt,4900259,
778,45.735256,-73.621961,Sprint_Bourque:  [UNCLAIMED],UNCLAIMED,000000,Sprint_Bourque,4663183,
779,45.725529,-73.658009,640 voie service:  [UNCLAIMED],UNCLAIMED,000000,640 voie service,7715888,
780,45.7347253617,-73.6547131464,Avenue Normandie Climb:  [UNCLAIMED],UNCLAIMED,000000,Avenue Normandie Climb,2217803,
781,45.739483,-73.632384,ridge:  [UNCLAIMED],UNCLAIMED,000000,ridge,9899190,
782,45.722504,-73.606852,Aéro